id,ident,type,name,latitude_deg,longitude_deg,elevation_ft,continent,iso_country,iso_region,municipality,scheduled_service,icao_code,iata_code,gps_code,local_code,home_link,wikipedia_link,keywords,chinese_name
4650,03N,small_airport,Utirik Airport,11.222219,169.851429,4,OC,MH,MH-UTI,Utirik Island,yes,,UTK,03N,03N,,https://en.wikipedia.org/wiki/Utirik_Airport,,乌蒂里克机场
6807,05AK,small_airport,Wasilla Creek Airpark,61.66830063,-149.1880035,620,NA,US,US-AK,Palmer,yes,,,05AK,05AK,,,,瓦西拉溪机场
7977,16A,small_airport,Nunapitchuk Airport,60.905591,-162.440454,12,NA,US,US-AK,Nunapitchuk,yes,PPIT,NUP,PPIT,16A,,https://en.wikipedia.org/wiki/Nunapitchuk_Airport,,努纳皮丘克机场
8159,19P,seaplane_base,Port Protection Seaplane Base,56.3288,-133.610001,,NA,US,US-AK,Port Protection,yes,,PPV,19P,19P,,https://en.wikipedia.org/wiki/Port_Protection_Seaplane_Base,AK19,港口保护水上飞机基地
8638,1RL,small_airport,Point Roberts Airpark,48.977316,-123.079294,10,NA,US,US-WA,Point Roberts,yes,,,K1RL,1RL,,https://en.wikipedia.org/wiki/Point_Roberts_Airpark,,罗伯茨角机场
9819,2U7,small_airport,Stanley Airport,44.2085,-114.934998,6403,NA,US,US-ID,Stanley,yes,,,,2U7,,,,斯坦利机场
9850,2WA3,small_airport,Stuart Island West Airport,48.683991,-123.222849,200,NA,US,US-WA,Friday Harbor,yes,,,2WA3,2WA3,,,,斯图尔特岛西机场
10309,38WA,small_airport,Blakely Island Airport,48.579162,-122.823844,66,NA,US,US-WA,Blakely Island,yes,,BYW,38WA,38WA,,,,布莱克利岛机场
11318,4A2,small_airport,Atmautluak Airport,60.866699,-162.272996,17,NA,US,US-AK,Atmautluak,yes,,ATT,,4A2,,https://en.wikipedia.org/wiki/Atmautluak_Airport,08AK,阿特毛特鲁克机场
11485,4K0,small_airport,Pedro Bay Airport,59.796925,-154.129994,45,NA,US,US-AK,Pedro Bay,yes,,PDB,4K0,4K0,,https://en.wikipedia.org/wiki/Pedro_Bay_Airport,AK04,佩德罗湾机场
11487,4K5,small_airport,Ouzinkie Airport,57.942094,-152.464314,55,NA,US,US-AK,Ouzinkie,yes,,KOZ,,4K5,,https://en.wikipedia.org/wiki/Ouzinkie_Airport,,乌津基机场
11488,4KA,small_airport,Tununak Airport,60.569638,-165.246649,14,NA,US,US-AK,Tununak,yes,,TNK,POKA,4KA,,https://en.wikipedia.org/wiki/Tununak_Airport,AK45,图努纳克机场
11820,4Z7,seaplane_base,Hyder Seaplane Base,55.903324,-130.009975,,NA,US,US-AK,Hyder,yes,,WHD,,4Z7,,https://en.wikipedia.org/wiki/Hyder_Seaplane_Base,,海德水上飞机基地
11900,51Z,small_airport,Minto Al Wright Airport,65.147991,-149.368658,460,NA,US,US-AK,Minto,yes,,MNT,,51Z,,https://en.wikipedia.org/wiki/Minto_Airport,,明托阿尔赖特机场
12243,5A8,medium_airport,Aleknagik / New Airport,59.2826004028,-158.617996216,66,NA,US,US-AK,Aleknagik,yes,,WKK,5A8,5A8,,https://en.wikipedia.org/wiki/Aleknagik_Airport,,阿列克纳吉克/新机场
12429,5KE,seaplane_base,Ketchikan Harbor Seaplane Base,55.349899,-131.677002,,NA,US,US-AK,Ketchikan,yes,,WFB,,5KE,,https://en.wikipedia.org/wiki/Ketchikan_Harbor_Seaplane_Base,,凯奇坎港水上飞机基地
12764,5Z9,seaplane_base,Lake Brooks Seaplane Base,58.554798,-155.776993,36,NA,US,US-AK,Katmai National Park,yes,,BKF,5Z9,5Z9,,https://en.wikipedia.org/wiki/Lake_Brooks_Seaplane_Base,,布鲁克斯湖水上飞机基地
13405,6N5,heliport,East 34th Street Heliport,40.742372,-73.972074,10,NA,US,US-NY,New York,yes,,TSS,6N5,6N5,,https://en.wikipedia.org/wiki/East_34th_Street_Heliport,,东 34 街直升机场
13407,6N7,seaplane_base,New York Skyports Inc Seaplane Base,40.735061,-73.972814,,NA,US,US-NY,New York,yes,,NYS,,6N7,,https://en.wikipedia.org/wiki/New_York_Skyports_Inc._Seaplane_Base,QNY,纽约天空港公司水上飞机基地
13634,6Y8,small_airport,Welke Airport,45.720503,-85.518866,664,NA,US,US-MI,Beaver Island,yes,,,6Y8,6Y8,,https://en.wikipedia.org/wiki/Welke_Airport,,韦尔克机场
13997,78WA,small_airport,Center Island Airport,48.490046,-122.831612,115,NA,US,US-WA,Center Island,yes,,CWS,78WA,78WA,,https://en.wikipedia.org/wiki/Center_Island_Airport,,中心岛机场
14173,7KA,small_airport,Tatitlek Airport,60.871449,-146.690297,62,NA,US,US-AK,Tatitlek,yes,PAKA,TEK,PAKA,7KA,,https://en.wikipedia.org/wiki/Tatitlek_Airport,AK47,塔提提克机场
14453,7WA5,small_airport,Stuart Island Airpark,48.673379,-123.175439,10,NA,US,US-WA,Friday Harbor,yes,,SSW,7WA5,7WA5,,,,斯图尔特岛机场
14820,89D,small_airport,Kelleys Island Land Field,41.60296,-82.687054,598,NA,US,US-OH,Kelleys Island,yes,,,89D,89D,,https://en.wikipedia.org/wiki/Kelleys_Island_Land_Field,,凯利斯岛土地领域
14843,89TE,small_airport,Lajitas International Airport,29.278,-103.686997,2630,NA,US,US-TX,Lajitas,yes,,,KT89,T89,https://www.lajitasgolfresort.com/airport/,,89TE,拉吉塔斯国际机场
15300,90WA,small_airport,Waldron Airstrip,48.71141,-123.018208,140,NA,US,US-WA,Eastsound,yes,,WDN,90WA,90WA,,,Waldronaire,沃尔德伦机场
15514,96Z,seaplane_base,Whale Pass Seaplane Float Harbor Facility,56.116299,-133.121994,,NA,US,US-AK,Whale Pass,yes,,WWP,,96Z,,https://en.wikipedia.org/wiki/North_Whale_Seaplane_Base,"North Whale SPB, North Whale Pass",鲸鱼通道水上飞机浮动港口设施
15640,9A3,small_airport,Chuathbaluk Airport,61.579102,-159.216003,244,NA,US,US-AK,Chuathbaluk,yes,PACH,CHU,PACH,9A3,,https://en.wikipedia.org/wiki/Chuathbaluk_Airport,,恰斯巴鲁克机场
16078,A29,seaplane_base,Sitka Seaplane Base,57.052101,-135.345993,,NA,US,US-AK,Sitka,yes,,,A29,A29,,https://en.wikipedia.org/wiki/Sitka_Seaplane_Base,AK29,锡特卡水上飞机基地
16082,A61,small_airport,Tuntutuliak Airport,60.351243,-162.654476,16,NA,US,US-AK,Tuntutuliak,yes,,WTL,A61,A61,,https://en.wikipedia.org/wiki/Tuntutuliak_Airport,AK61,图图利亚克机场
16083,A63,small_airport,Twin Hills Airport,59.074713,-160.274992,82,NA,US,US-AK,Twin Hills,yes,,TWA,A63,A63,,https://en.wikipedia.org/wiki/Twin_Hills_Airport,AK63,双山机场
16089,A79,small_airport,Chignik Lake Airport,56.255001,-158.774994,50,NA,US,US-AK,Chignik Lake,yes,,KCQ,A79,A79,,https://en.wikipedia.org/wiki/Chignik_Lake_Airport,AK79,奇格尼克湖机场
42257,AE-0001,small_airport,Batha Airport,24.214693,51.44989,257,AS,SA,SA-04,Batha,yes,OEBT,,OEBT,,,,"Ras Sumeira UAE,",巴塔机场
300646,AEI,heliport,Algeciras Heliport,36.12882,-5.441079,98,EU,ES,ES-AN,Algeciras,yes,LEAG,,LEAG,,https://www.aena.es/en/algeciras.html,https://en.wikipedia.org/wiki/Algeciras_Heliport,,阿尔赫西拉斯直升机场
31750,AF-0017,small_airport,Salerno South Airport,33.333401,69.952003,3756,AS,AF,AF-KHO,Khost,yes,,,,,,,,萨莱诺南机场
35369,AF15,heliport,Qara Tepa Heliport,37.423302,69.430298,1437,AS,AF,AF-TAK,Qara Tepa,yes,,,,,,,,卡拉特帕直升机场
336537,AG-0001,medium_airport,Burton-Nibbs International Airport,17.621194,-61.798347,28,NA,AG,AG-10,Codrington,yes,TAPB,BBQ,TAPB,,,https://en.wikipedia.org/wiki/Burton%E2%80%93Nibbs_International_Airport,"Barbuda International Airport, New Barbuda Airport",伯顿-尼布斯国际机场
30634,AGGA,small_airport,Gwaunaru'u Airport,-8.70257,160.682007,5,OC,SB,SB-ML,Auki,yes,AGGA,AKS,AGGA,,,https://en.wikipedia.org/wiki/Auki_Airport,,瓜纳鲁乌机场
302047,AGGB,small_airport,Bellona/Anua Airport,-11.302222222200001,159.798333333,60,OC,SB,SB-RB,Anua,yes,AGGB,BNY,AGGB,,,https://en.wikipedia.org/wiki/Bellona/Anua_Airport,,贝罗纳/阿努阿机场
302291,AGGC,small_airport,Choiseul Bay Airport,-6.711944,156.396111,,OC,SB,SB-CH,Choiseul Bay,yes,AGGC,CHY,AGGC,,,https://en.wikipedia.org/wiki/Choiseul_Bay_Airport,,舒瓦瑟尔湾机场
30678,AGGE,small_airport,Ballalae Airport,-6.990745,155.886656,5,OC,SB,SB-WE,Ballalae,yes,AGGE,BAS,AGGE,,,https://en.wikipedia.org/wiki/Balalae_Airport,,巴拉莱机场
35167,AGGF,small_airport,Fera/Maringe Airport,-8.1075,159.576996,9,OC,SB,SB-IS,Fera Island,yes,AGGF,FRE,AGGF,,,https://en.wikipedia.org/wiki/Fera_Airport,Santa Isabel Islands,费拉/马林日机场
3,AGGH,large_airport,Honiara International Airport,-9.428,160.054993,28,OC,SB,SB-GU,Honiara,yes,AGGH,HIR,AGGH,,,https://en.wikipedia.org/wiki/Honiara_International_Airport,Henderson Field,霍尼亚拉国际机场
31686,AGGK,small_airport,Ngorangora Airport,-10.449700355500001,161.897994995,54,OC,SB,SB-MK,Kirakira,yes,AGGK,IRA,AGGK,,,https://en.wikipedia.org/wiki/Kirakira_Airport,,恩戈兰戈拉机场
32275,AGGL,small_airport,Santa Cruz/Graciosa Bay/Luova Airport,-10.7203,165.794998,18,OC,SB,SB-TE,Santa Cruz/Graciosa Bay/Luova,yes,AGGL,SCZ,AGGL,,,https://en.wikipedia.org/wiki/Luova_Airport,,圣克鲁斯/格拉西奥萨湾/洛瓦机场
4,AGGM,medium_airport,Munda Airport,-8.32797,157.263,10,OC,SB,SB-WE,Munda,yes,AGGM,MUA,AGGM,,,https://en.wikipedia.org/wiki/Munda_Airport,,蒙达机场
31563,AGGN,small_airport,Nusatupe Airport,-8.09778022766,156.863998413,13,OC,SB,SB-WE,Gizo,yes,AGGN,GZO,AGGN,,,https://en.wikipedia.org/wiki/Nusatupe_Airport,,努萨图佩机场
31932,AGGO,small_airport,Mono Airport,-7.41694,155.565002,35,OC,SB,SB-WE,Stirling Island,yes,AGGO,MNY,AGGO,,,https://en.wikipedia.org/wiki/Mono_Airport,,莫诺机场
35171,AGGR,small_airport,Rennell/Tingoa Airport,-11.55,160.062778,550,OC,SB,SB-RB,Rennell Island,yes,AGGR,RNL,AGGR,,,https://en.wikipedia.org/wiki/Tingoa_Airport,,伦内尔/廷戈阿机场
308425,AGGT,small_airport,Santa Ana Airport,-10.847994,162.454108,3,OC,SB,SB-MK,Santa Ana Island,yes,AGGT,NNB,AGGT,,,https://en.wikipedia.org/wiki/Santa_Ana_Airport_(Solomon_Islands),,圣安娜机场
32238,AGGU,small_airport,Marau Airport,-9.86167,160.824997,3,OC,SB,SB-GU,Marau,yes,AGGU,RUS,AGGU,,,https://en.wikipedia.org/wiki/Marau_Airport,,马劳机场
32564,AGGV,small_airport,Suavanao Airport,-7.58556,158.731003,20,OC,SB,SB-IS,Suavanao,yes,AGGV,VAO,AGGV,,,https://en.wikipedia.org/wiki/Suavanao_Airport,,苏瓦瑙机场
302292,AGGY,small_airport,Yandina Airport,-9.092816,159.21841,60,OC,SB,SB-CE,Yandina,yes,AGGY,XYA,AGGY,,,https://en.wikipedia.org/wiki/Yandina_Airport,,延迪纳机场
35169,AGKG,small_airport,Kaghau Airport,-7.3305,157.585,30,OC,SB,SB-CH,Kagau Island,yes,AGKG,KGE,AGKG,,,https://en.wikipedia.org/wiki/Kaghau_Airport,Kagau Island,卡高机场
508090,AGOB,small_airport,Manaoba Airport,-8.325008,160.80051,14,OC,SB,SB-ML,Manaoba,yes,AGOB,MHM,AGOB,,,,,马纳奥巴机场
35168,AGOK,small_airport,Gatokae Aerodrome,-8.738358,158.202836,70,OC,SB,SB-WE,Gatokae,yes,AGOK,GTA,AGOK,,,https://en.wikipedia.org/wiki/Gatokae_Aerodrome,,加托卡埃机场
35170,AGRM,small_airport,Ramata Airport,-8.168060302734375,157.64300537109375,,OC,SB,SB-WE,Ramata,yes,AGRM,RBV,AGRM,,,https://en.wikipedia.org/wiki/Ramata_Airport,,拉马塔机场
16155,AK62,seaplane_base,Naukati Bay Seaplane Base,55.849602,-133.227994,,NA,US,US-AK,Tuxekan Island,yes,,NKI,AK62,AK62,,https://en.wikipedia.org/wiki/Naukati_Bay_Seaplane_Base,"62A, Nichin Cove Seaplane Base, WNC",诺卡提湾水上飞机基地
16174,AK81,seaplane_base,Amook Bay Seaplane Base,57.4715003967,-153.815002441,,NA,US,US-AK,Amook Bay,yes,,AOS,AK81,AK81,,https://en.wikipedia.org/wiki/Amook_Bay_Seaplane_Base,,阿穆克湾水上飞机基地
16289,ALZ,seaplane_base,Alitak Seaplane Base,56.897294,-154.249692,,NA,US,US-AK,Lazy Bay,yes,,ALZ,,ALZ,,https://en.wikipedia.org/wiki/Alitak_Seaplane_Base,,阿利塔克水上飞机基地
8,ANYN,medium_airport,Nauru International Airport,-0.547893,166.919525,22,OC,NR,NR-14,Yaren,yes,ANYN,INU,ANYN,,https://www.nauruair.com/,https://en.wikipedia.org/wiki/Nauru_International_Airport,"Nauru, Yaren District, Naero",瑙鲁国际机场
313091,AR-0503,small_airport,Gan Gan Field,-42.521363,-68.287861,,SA,AR,AR-U,,yes,,,,,,,,甘甘田
596544,AR-0767,medium_airport,Aeroestación Yabotí,-27.180308,-54.107368,400,SA,AR,AR-N,El Soberbio,yes,,,,,,,,亚博蒂航空站
354527,AU-0456,small_airport,Gruyere Airport,-28.034548,123.81506,1542,OC,AU,AU-WA,Cosmo Newbery,yes,YGRM,GYZ,YGRM,,,https://en.wikipedia.org/wiki/Gruyere_Airport,,格鲁耶尔机场
35302,AU-HIS,seaplane_base,Hayman Island Resort Seaplane Base,-20.059999465942383,148.88099670410156,,OC,AU,AU-QLD,Hayman Island,yes,,HIS,,,,,,海曼岛度假村水上飞机基地
314558,AXF,medium_airport,Alxa Left Banner Bayanhot Airport,38.748317,105.58416,4560,AS,CN,CN-15,Bayanhot,yes,ZBAL,AXF,ZBAL,,,https://en.wikipedia.org/wiki/Alxa_Left_Banner_Bayanhot_Airport,,阿拉善左旗巴彦浩特机场
35179,AYBA,medium_airport,Baimuru Airport,-7.496955,144.821756,27,OC,PG,PG-GPK,Baimuru,yes,AYBA,VMU,AYBA,BMU,,https://en.wikipedia.org/wiki/Baimuru_Airport,,拜穆鲁机场
53,AYBK,medium_airport,Buka Airport,-5.422299,154.672698,11,OC,PG,PG-NSB,Buka Island,yes,AYBK,BUA,AYBK,,,https://en.wikipedia.org/wiki/Buka_Airport,,布卡机场
35180,AYBM,medium_airport,Balimo Airport,-8.05000019073,142.932998657,51,OC,PG,PG-WPD,Balimo,yes,AYBM,OPU,AYBM,BLI,,https://en.wikipedia.org/wiki/Balimo_Airport,,巴利莫机场
54,AYCH,medium_airport,Chimbu Airport,-6.024290084838867,144.9709930419922,4974,OC,PG,PG-CPK,Kundiawa,yes,AYCH,CMU,AYCH,,,https://en.wikipedia.org/wiki/Chimbu_Airport,,钦布机场
55,AYDU,medium_airport,Daru Airport,-9.08676,143.207993,20,OC,PG,PG-WPD,Daru,yes,AYDU,DAU,AYDU,,,https://en.wikipedia.org/wiki/Daru_Airport,,达鲁机场
301979,AYET,small_airport,Bosset Airport,-7.237257,141.1063222,80,OC,PG,PG-WPD,Bosset,yes,AYET,BOT,AYET,BST,,https://en.wikipedia.org/wiki/Bosset_Airport,Boset,博塞特机场
56,AYGA,medium_airport,Goroka Airport,-6.081689834590001,145.391998291,5282,OC,PG,PG-EHG,Goronka,yes,AYGA,GKA,AYGA,,,https://en.wikipedia.org/wiki/Goroka_Airport,,戈罗卡机场
57,AYGN,medium_airport,Gurney Airport,-10.3114995956,150.333999634,88,OC,PG,PG-MBA,Gurney,yes,AYGN,GUR,AYGN,,,https://en.wikipedia.org/wiki/Gurney_Airport,,格尼机场
58,AYGR,medium_airport,Girua Airport,-8.80453968048,148.309005737,311,OC,PG,PG-NPP,Popondetta,yes,AYGR,PNP,AYGR,,,https://en.wikipedia.org/wiki/Girua_Airport,,吉鲁阿机场
31542,AYGT,small_airport,Gasmata Island Airport,-6.27111005783,150.330993652,23,OC,PG,PG-WBK,Gasmata Island,yes,AYGT,GMI,AYGT,GMA,,https://en.wikipedia.org/wiki/Gasmata_Airport,,加斯马塔岛机场
59,AYHK,medium_airport,Hoskins Airport,-5.463846,150.407327,66,OC,PG,PG-WBK,Kimbe,yes,AYHK,HKN,AYHK,,,https://en.wikipedia.org/wiki/Hoskins_Airport,,霍斯金斯机场
302264,AYIQ,small_airport,Aropa Airport,-6.305727,155.728249,20,OC,PG,PG-NSB,Kieta,yes,AYIQ,KIE,AYIQ,KIA,,https://en.wikipedia.org/wiki/Aropa_Airport,,阿罗帕机场
35188,AYKA,small_airport,Losuia Airport,-8.505820274353027,151.08099365234375,27,OC,PG,PG-MBA,Losuia,yes,AYKA,LSA,AYKA,,,https://en.wikipedia.org/wiki/Losuia_Airport,Formerly Kiriwina Airport,洛苏亚机场
35185,AYKI,small_airport,Kiunga Airport,-6.1257100105285645,141.28199768066406,88,OC,PG,PG-WPD,Kiunga,yes,AYKI,UNG,AYKI,,,https://en.wikipedia.org/wiki/Kiunga_Airport,,昆加机场
35184,AYKK,small_airport,Kikori Airport,-7.42438,144.250076,50,OC,PG,PG-GPK,Kikori,yes,AYKK,KRI,AYKK,,,https://en.wikipedia.org/wiki/Kikori_Airport,,基科里机场
60,AYKM,medium_airport,Kerema Airport,-7.96361017227,145.770996094,10,OC,PG,PG-GPK,Kerema,yes,AYKM,KMA,AYKM,,,https://en.wikipedia.org/wiki/Kerema_Airport,,凯雷马机场
61,AYKV,medium_airport,Kavieng Airport,-2.57940006256,150.807998657,7,OC,PG,PG-NIK,Kavieng,yes,AYKV,KVG,AYKV,,,https://en.wikipedia.org/wiki/Kavieng_Airport,,卡维恩机场
31837,AYKY,small_airport,Londolovit Airport,-3.04361009598,152.628997803,167,OC,PG,PG-NIK,Londolovit,yes,AYKY,LNV,AYKY,,,https://en.wikipedia.org/wiki/Lihir_Island_Airport,"Lihir Island, Kunaye",隆多洛维特机场
62,AYMD,medium_airport,Madang Airport,-5.20707988739,145.789001465,20,OC,PG,PG-MPM,Madang,yes,AYMD,MAG,AYMD,,,https://en.wikipedia.org/wiki/Madang_Airport,,马当机场
63,AYMH,medium_airport,Mount Hagen Kagamuga Airport,-5.828212,144.299412,5388,OC,PG,PG-WHM,Mount Hagen,yes,AYMH,HGU,AYMH,,,https://en.wikipedia.org/wiki/Mount_Hagen_Airport,,芒特哈根卡加穆加机场
64,AYMN,medium_airport,Mendi Airport,-6.14774,143.656998,5680,OC,PG,PG-SHM,Mendi,yes,AYMN,MDU,AYMN,,,https://en.wikipedia.org/wiki/Mendi_Airport,,门迪机场
65,AYMO,medium_airport,Momote Airport,-2.06189,147.423996,12,OC,PG,PG-MRL,Manus Island,yes,AYMO,MAS,AYMO,,,https://en.wikipedia.org/wiki/Momote_Airport,,莫莫特机场
31981,AYMR,small_airport,Moro Airport,-6.36332988739,143.238006592,2740,OC,PG,PG-SHM,Moro,yes,AYMR,MXH,AYMR,,,https://en.wikipedia.org/wiki/Moro_Airport,,莫罗机场
31911,AYMS,small_airport,Misima Island Airport,-10.689200401299999,152.837997437,26,OC,PG,PG-MBA,Misima Island,yes,AYMS,MIS,AYMS,,,https://en.wikipedia.org/wiki/Misima_Airport,,米西马岛机场
66,AYNZ,large_airport,Nadzab Tomodachi International Airport,-6.567995,146.726544,239,OC,PG,PG-MPL,Lae,yes,AYNZ,LAE,AYNZ,,,https://en.wikipedia.org/wiki/Lae_Nadzab_Airport,MFO,纳扎布·托莫达奇国际机场
35190,AYOB,small_airport,Obo Airport,-7.590622421369999,141.324262619,29,OC,PG,PG-WPD,Obo,yes,AYOB,OBX,AYOB,OBO,,https://en.wikipedia.org/wiki/Obo_Airport_(Papua_New_Guinea),,奥博机场
67,AYPY,large_airport,Port Moresby Jacksons International Airport,-9.443380355834961,147.22000122070312,146,OC,PG,PG-NCD,Port Moresby,yes,AYPY,POM,AYPY,,,https://en.wikipedia.org/wiki/Jacksons_International_Airport,,莫尔兹比港杰克逊斯国际机场
309428,AYSS,small_airport,Sasereme Airport,-7.6217,142.868,121,OC,PG,PG-WPD,Sasereme,yes,AYSS,TDS,AYSS,,,https://en.wikipedia.org/wiki/Sasereme_Airport,,萨塞雷梅机场
32451,AYTA,small_airport,Tari Airport,-5.845,142.947998,5500,OC,PG,PG-HLA,Tari,yes,AYTA,TIZ,AYTA,,,https://en.wikipedia.org/wiki/Tari_Airport,,塔里机场
32425,AYTB,small_airport,Tabubil Airport,-5.280471,141.227576,1570,OC,PG,PG-WPD,Tabubil,yes,AYTB,TBG,AYTB,,,https://en.wikipedia.org/wiki/Tabubil_Airport,,塔布比尔机场
307594,AYTI,small_airport,Tapini Airport,-8.35666666667,146.989166667,3100,OC,PG,PG-CPM,Tapini,yes,AYTI,TPI,AYTI,TAP,,https://en.wikipedia.org/wiki/Tapini_Airport,,塔皮尼机场
68,AYTK,medium_airport,Tokua Airport,-4.34046,152.380005,49,OC,PG,PG-EBR,Kokopo,yes,AYTK,RAB,AYTK,,,https://en.wikipedia.org/wiki/Rabaul_Airport,,托库阿机场
35192,AYTU,small_airport,Tufi Airport,-9.07595443726,149.319839478,85,OC,PG,PG-NPP,Tufi,yes,AYTU,TFI,AYTU,TUFI,,https://en.wikipedia.org/wiki/Tufi_Airport,,图菲机场
69,AYVN,medium_airport,Vanimo Airport,-2.6926,141.3028,10,OC,PG,PG-SAN,Vanimo,yes,AYVN,VAI,AYVN,,,https://en.wikipedia.org/wiki/Vanimo_Airport,,瓦尼莫机场
70,AYWD,medium_airport,Wapenamanda Airport,-5.635293,143.892231,5889,OC,PG,PG-EPW,Wapenamanda,yes,AYWD,WBM,AYWD,,,https://en.wikipedia.org/wiki/Wapenamanda_Airport,,瓦佩纳曼达机场
71,AYWK,medium_airport,Wewak International Airport,-3.58383011818,143.669006348,19,OC,PG,PG-ESW,Wewak,yes,AYWK,WWK,AYWK,,,https://en.wikipedia.org/wiki/Wewak_International_Airport,,维瓦克国际机场
31697,BGAA,medium_airport,Aasiaat Airport,68.721802,-52.784698,74,NA,GL,GL-QK,Aasiaat,yes,BGAA,JEG,BGAA,,http://airgreenland.com/om_rejsen/efter_rejsen/din_destination_/aasiaat/,https://en.wikipedia.org/wiki/Aasiaat_Airport,"Mittarfik Aasiaat, Aasiaat Lufthavn, Egedesminde",亚西亚特机场
43214,BGAG,heliport,Aappilattoq Heliport,72.88703,-55.596287,42,NA,GL,GL-AV,Aappilattoq,yes,,AOQ,BGAG,AAP,,https://en.wikipedia.org/wiki/Aappilattoq_Heliport_(Avannaata),,阿皮拉托克直升机场
42247,BGAM,heliport,Tasiilaq Heliport,65.612296,-37.618335,24,NA,GL,GL-SE,Tasiilaq,yes,,AGM,BGAM,AGM,http://airgreenland.com/om_rejsen/efter_rejsen/din_destination_/tasiilaq/,https://en.wikipedia.org/wiki/Tasiilaq_Heliport,Ammassalik,塔西拉克直升机场
35285,BGAP,heliport,Alluitsup Paa Heliport,60.46445,-45.56917,54,NA,GL,GL-KU,Alluitsup Paa,yes,,LLU,BGAP,,,https://en.wikipedia.org/wiki/Alluitsup_Paa_Heliport,Agdluitsup pâ,阿鲁特苏普帕直升机场
44046,BGAQ,heliport,Aappilattoq Heliport,60.148357,-44.286916,30,NA,GL,GL-KU,Aappilattoq,yes,,QUV,BGAQ,,,https://en.wikipedia.org/wiki/Aappilattoq_Heliport_(Kujalleq),Augpilagtoq,阿皮拉托克直升机场
44047,BGAS,heliport,Ammassivik Heliport,60.597376,-45.382445,71,NA,GL,GL-KU,Ammassivik,yes,,QUW,BGAS,,,https://en.wikipedia.org/wiki/Ammassivik_Heliport,"Angmagssivik, Sletten",阿马西维克直升机场
35286,BGAT,heliport,Attu Heliport,67.940663,-53.62187,32,NA,GL,GL-QK,Attu,yes,,QGQ,BGAT,,,https://en.wikipedia.org/wiki/Attu_Heliport,,阿图直升机场
113,BGBW,heliport,Narsarsuaq Airport,61.15958,-45.42469,112,NA,GL,GL-KU,Narsarsuaq,yes,BGBW,UAK,BGBW,,,https://en.wikipedia.org/wiki/Narsarsuaq_Airport,"Bluie West One, Mittarfik Narsarsuaq",纳沙斯瓦哥机场
35299,BGCH,heliport,Qasigiannguit Heliport,68.822816,-51.173447,70,NA,GL,GL-QK,Qasigiannguit,yes,BGCH,JCH,BGCH,,http://airgreenland.com/om_rejsen/efter_rejsen/din_destination_/qasigiannguit/,https://en.wikipedia.org/wiki/Qasigiannguit_Heliport,Christianshåb,卡西吉安吉特直升机场
30839,BGCO,medium_airport,Neerlerit Inaat Airport,70.743103,-22.650499,45,NA,GL,GL-SE,Neerlerit Inaat,yes,BGCO,CNP,BGCO,,,https://en.wikipedia.org/wiki/Nerlerit_Inaat_Airport,"Constable Point, Mittarfik Nerlerit Inaat, Constable Pynt Lufthavn",尼勒里特伊纳特机场
44052,BGET,heliport,Eqalugaarsuit Heliport,60.61972,-45.914062,9,NA,GL,GL-KU,Eqalugaarsuit,yes,,QFG,BGET,,,https://en.wikipedia.org/wiki/Eqalugaarsuit_Heliport,Eqalugârssuit,Eqalugaarsuit 直升机场
44062,BGFD,heliport,Narsarmijit Heliport,60.004694,-44.656935,44,NA,GL,GL-KU,Narsarmijit,yes,,QFN,BGFD,,,https://en.wikipedia.org/wiki/Narsarmijit_Heliport,"Narsaq Kujalleq, Frederiksdal",纳沙米吉特直升机场
44059,BGGD,heliport,Kangilinnguit Heliport,61.22896,-48.09698,101,NA,GL,GL-SE,Kangilinnguit,yes,,JGR,BGGD,,,https://en.wikipedia.org/wiki/Kangilinnguit,,康吉林吉特直升机场
114,BGGH,large_airport,Nuuk International Airport,64.191066,-51.67914,283,NA,GL,GL-SE,Nuuk,yes,BGGH,GOH,BGGH,,https://www.airports.gl/en/airport/nuuk/,https://en.wikipedia.org/wiki/Nuuk_Airport,"Godthåb, Nuussuaq, Mittarfik Nuuk, Nuuk International",努克国际机场
35300,BGGN,heliport,Qeqertarsuaq Heliport,69.251182,-53.514876,9,NA,GL,GL-QK,Qeqertarsuaq,yes,,JGO,BGGN,,http://airgreenland.com/om_rejsen/efter_rejsen/din_destination_/qeqertarsuaq/,https://en.wikipedia.org/wiki/Qeqertarsuaq_Heliport,Godhavn,凯克塔苏阿克直升机场
43215,BGIA,heliport,Ikerasak Heliport,70.498145,-51.303084,66,NA,GL,GL-AV,Ikerasak,yes,,IKE,BGIA,IKE,,https://en.wikipedia.org/wiki/Ikerasak_Heliport,,伊克拉萨克直升机场
44054,BGIG,heliport,Iginniarfik Heliport,68.14583,-53.16916,50,NA,GL,GL-QK,Iginniarfik,yes,BGIG,QFI,BGIG,,,https://en.wikipedia.org/wiki/Iginniarfik_Heliport,,伊金尼亚菲克直升机场
35290,BGIK,heliport,Ikerassaarsuk Heliport,68.140881,-53.441459,165,NA,GL,GL-QK,Ikerassaarsuk,yes,,QRY,BGIK,,,https://en.wikipedia.org/wiki/Ikerasaarsuk_Heliport,,伊克拉萨苏克直升机场
35291,BGIL,heliport,Ilimanaq Heliport,69.080915,-51.114315,52,NA,GL,GL-AV,Ilimanaq,yes,,XIQ,BGIL,,,https://en.wikipedia.org/wiki/Ilimanaq_Heliport,Claushavn,伊利马纳克直升机场
44056,BGIN,heliport,Innarsuit Heliport,73.199895,-56.010817,95,NA,GL,GL-AV,Innarsuit,yes,,IUI,BGIN,INN,,https://en.wikipedia.org/wiki/Innaarsuit_Heliport,,Innarsuit直升机场
44057,BGIS,heliport,Isortoq Heliport,65.547792,-38.976552,92,NA,GL,GL-SE,Isortoq,yes,,IOQ,BGIS,ISO,,https://en.wikipedia.org/wiki/Isortoq_Heliport,Isertoq,伊索托克直升机场
35289,BGIT,heliport,Ikamiut Heliport,68.634253,-51.832262,49,NA,GL,GL-QK,Ikamiut,yes,,QJI,BGIT,,,https://en.wikipedia.org/wiki/Ikamiut_Heliport,,伊卡缪特直升机场
31694,BGJN,medium_airport,Ilulissat Airport,69.243202,-51.057098,95,NA,GL,GL-AV,Ilulissat,yes,BGJN,JAV,BGJN,,https://mit.gl/ilulissat,https://en.wikipedia.org/wiki/Ilulissat_Airport,"Mittarfik Ilulissat, Ilulissat Lufthavn, Jakobshavn",伊卢利萨特机场
35292,BGKA,heliport,Kangaatsiaq Heliport,68.312657,-53.460208,17,NA,GL,GL-QK,Kangaatsiaq,yes,,QPW,BGKA,,,https://en.wikipedia.org/wiki/Kangaatsiaq_Heliport,,康加特夏克直升机场
31786,BGKK,medium_airport,Kulusuk Airport,65.573601,-37.1236,117,NA,GL,GL-SE,Kulusuk,yes,BGKK,KUS,BGKK,,,https://en.wikipedia.org/wiki/Kulusuk_Airport,"Kap Dan, BGKD",库鲁苏克机场
43224,BGKL,heliport,Upernavik Kujalleq Heliport,72.152743,-55.530986,92,NA,GL,GL-AV,Upernavik Kujalleq,yes,,,BGKL,UPK,,https://en.wikipedia.org/wiki/Upernavik_Kujalleq_Heliport,Søndre Upernavik,乌佩纳维克库贾勒克直升机场
44060,BGKM,heliport,Kuummiut Heliport,65.863935,-36.997919,89,NA,GL,GL-SE,Kuummiut,yes,,KUZ,BGKM,KMT,,https://en.wikipedia.org/wiki/Kuummiit_Heliport,Kuummiit,库姆缪特直升机场
43217,BGKS,heliport,Kangersuatsiaq Heliport,72.381092,-55.536586,112,NA,GL,GL-AV,Kangersuatsiaq,yes,,KGQ,BGKS,KAQ,,https://en.wikipedia.org/wiki/Kangersuatsiaq_Heliport,"Kangerssuatsiaq, Prøven",康格苏阿夏克直升机场
35293,BGKT,heliport,Kitsissuarsuit Heliport,68.857926,-53.123295,18,NA,GL,GL-QK,Kitsissuarsuit,yes,,QJE,BGKT,,,https://en.wikipedia.org/wiki/Kitsissuarsuit_Heliport,Hunde Ejlande,Kitsissuarsuit 直升机场
43216,BGLL,heliport,Illorsuit Heliport,71.241944,-53.562877,154,NA,GL,GL-AV,Illorsuit,yes,,IOT,BGLL,ILL,,https://en.wikipedia.org/wiki/Illorsuit_Heliport,,伊洛西特直升机场
31711,BGMQ,small_airport,Maniitsoq Airport,65.412498,-52.9394,91,NA,GL,GL-QA,Maniitsoq,yes,BGMQ,JSU,BGMQ,,,https://en.wikipedia.org/wiki/Maniitsoq_Airport,"Mittarfik Maniitsoq, Sukkertoppen",马尼伊特索克机场
35296,BGNK,heliport,Niaqornaarsuk Heliport,68.236381,-52.852148,152,NA,GL,GL-QK,Niaqornaarsuk,yes,,,BGNK,,,https://en.wikipedia.org/wiki/Niaqornaarsuk_Heliport,QMK,尼亚科尔纳苏克直升机场
35294,BGNN,heliport,Nanortalik Heliport,60.141884,-45.232977,17,NA,GL,GL-KU,Nanortalik,yes,,JNN,BGNN,,,https://en.wikipedia.org/wiki/Nanortalik_Heliport,Nennortalik,纳诺塔利克直升机场
43219,BGNQ,heliport,Nuugaatsiaq Heliport,71.538769,-53.205038,57,NA,GL,GL-AV,Nuugaatsiaq,yes,,JUU,BGNQ,NUG,,https://en.wikipedia.org/wiki/Nuugaatsiaq_Heliport,,努加特夏克直升机场
35295,BGNS,heliport,Narsaq Heliport,60.917283,-46.059923,83,NA,GL,GL-KU,Narsaq,yes,,JNS,BGNS,,http://airgreenland.com/om_rejsen/efter_rejsen/din_destination_/narsaq/,https://en.wikipedia.org/wiki/Narsaq_Heliport,Nordprøven,纳萨克直升机场
44063,BGNT,heliport,Niaqornat Heliport,70.789385,-53.662945,10,NA,GL,GL-AV,Niaqornat,yes,,NIQ,BGNT,NIA,,https://en.wikipedia.org/wiki/Niaqornat_Heliport,,尼亚科纳特直升机场
44065,BGPT,small_airport,Paamiut Airport,62.014736,-49.670937,120,NA,GL,GL-SE,Paamiut,yes,BGPT,JFR,BGPT,,,https://en.wikipedia.org/wiki/Paamiut_Airport,"Mittarfik Paamiut, Frederikshåb",帕米特机场
43221,BGQE,heliport,Qeqertaq Heliport,69.995861,-51.300917,69,NA,GL,GL-AV,Qeqertaq,yes,,PQT,BGQE,QQT,,https://en.wikipedia.org/wiki/Qeqertaq_Heliport,Øen,凯克尔塔克直升机场
32004,BGQQ,medium_airport,Qaanaaq Airport,77.488602,-69.388702,51,NA,GL,GL-AV,Qaanaaq,yes,BGQQ,NAQ,BGQQ,,,https://en.wikipedia.org/wiki/Qaanaaq_Airport,"Mittarfik Qaanaaq, Thule",卡纳克机场
44066,BGQT,heliport,Qassimiut Heliport,60.780959,-47.156249,29,NA,GL,GL-KU,Qassimiut,yes,,QJH,BGQT,,,https://en.wikipedia.org/wiki/Qassimiut_Heliport,,卡西缪特直升机场
44058,BGSC,heliport,Ittoqqortoormiit Heliport,70.488229,-21.97168,238,NA,GL,GL-SE,Ittoqqortoormiit,yes,,OBY,BGSC,,,https://en.wikipedia.org/wiki/Ittoqqortoormiit_Heliport,Scoresbysund,伊托科尔托米特直升机场
115,BGSF,medium_airport,Kangerlussuaq International Airport,67.010446,-50.715294,165,NA,GL,GL-QA,Kangerlussuaq,yes,BGSF,SFJ,BGSF,,,https://en.wikipedia.org/wiki/Kangerlussuaq_Airport,"Bluie West 8, Sondrestrom Air Base, Sondrestromfjord Air Base",康克鲁斯瓦格国际机场
44069,BGSG,heliport,Sermiligaaq Heliport,65.90592,-36.378254,33,NA,GL,GL-SE,Sermiligaaq,yes,BGSG,SGG,BGSG,SMG,,https://en.wikipedia.org/wiki/Sermiligaaq_Heliport,Sermiligâk,塞尔米利盖克直升机场
44070,BGSI,heliport,Siorapaluk Heliport,77.786517,-70.638657,102,NA,GL,GL-AV,Siorapaluk,yes,BGSI,SRK,BGSI,SIO,,https://en.wikipedia.org/wiki/Siorapaluk_Heliport,Hiurapaluk,西奥拉帕卢克直升机场
323783,BGSO,heliport,Saarloq Heliport,60.537778,-46.024722,,NA,GL,GL-KU,Saarloq,yes,BGSO,QOQ,BGSO,,,https://en.wikipedia.org/wiki/Saarloq_Heliport,,萨尔洛克直升机场
35301,BGSQ,heliport,Saqqaq Heliport,70.011448,-51.932142,38,NA,GL,GL-AV,Saqqaq,yes,BGSQ,,BGSQ,,,https://en.wikipedia.org/wiki/Saqqaq_Heliport,"QUP, Sarqaq, Solsiden",萨卡克直升机场
31700,BGSS,medium_airport,Sisimiut Airport,66.951302,-53.729301,33,NA,GL,GL-QA,Sisimiut,yes,BGSS,JHS,BGSS,,https://www.mit.gl/en/todays-flights/airports/sisimiut-airport/,https://en.wikipedia.org/wiki/Sisimiut_Airport,,西西缪特机场
43222,BGST,heliport,Saattut Heliport,70.811172,-51.63129,131,NA,GL,GL-AV,Saattut,yes,BGST,SAE,BGST,SAA,,https://en.wikipedia.org/wiki/Saattut_Heliport,,萨图直升机场
44068,BGSV,heliport,Savissivik Heliport,76.018613,-65.117683,24,NA,GL,GL-AV,Savissivik,yes,BGSV,SVR,BGSV,SAV,,https://en.wikipedia.org/wiki/Savissivik_Heliport,,萨维西维克直升机场
44075,BGTA,heliport,Tasiusaq Heliport,73.373055,-56.06028,181,NA,GL,GL-AV,Tasiusaq,yes,BGTA,TQA,BGTA,,,https://en.wikipedia.org/wiki/Tasiusaq_Heliport_(Avannaata),,塔西萨克直升机场
116,BGTL,medium_airport,Pituffik Space Base,76.53063,-68.700541,251,NA,GL,GL-AV,Pituffik,yes,BGTL,THU,BGTL,,,https://en.wikipedia.org/wiki/Pituffik_Space_Base,Thule Air Base,皮图菲克太空基地
44076,BGTN,heliport,Tiniteqilaaq Heliport,65.892027,-37.783409,15,NA,GL,GL-SE,Tiniteqilaaq,yes,BGTN,TQI,BGTN,TNT,,https://en.wikipedia.org/wiki/Tiniteqilaaq_Heliport,,蒂尼特其拉克直升机场
44074,BGTQ,heliport,Tasiusaq Heliport,60.194305,-44.813447,21,NA,GL,GL-KU,Tasiusak,yes,BGTQ,XEQ,BGTQ,,,https://en.wikipedia.org/wiki/Tasiusaq_Heliport_(Kujalleq),,塔西萨克直升机场
31713,BGUK,small_airport,Upernavik Airport,72.790199,-56.1306,414,NA,GL,GL-AV,Upernavik,yes,BGUK,JUV,BGUK,,,https://en.wikipedia.org/wiki/Upernavik_Airport,Mittarfik Upernavik,乌佩纳维克机场
43225,BGUM,heliport,Uummannaq Heliport,70.680428,-52.11163,50,NA,GL,GL-AV,Uummannaq,yes,BGUM,UMD,BGUM,,http://airgreenland.com/om_rejsen/efter_rejsen/din_destination_/uummannaq/,https://en.wikipedia.org/wiki/Uummannaq_Heliport,,乌马纳克直升机场
31709,BGUQ,small_airport,Qaarsut Airport,70.7342,-52.696201,289,NA,GL,GL-AV,Uummannaq,yes,BGUQ,JQA,BGUQ,,,https://en.wikipedia.org/wiki/Qaarsut_Airport,,卡尔苏特机场
43223,BGUT,heliport,Ukkusissat Heliport,71.049438,-51.890016,223,NA,GL,GL-AV,Ukkusissat,yes,BGUT,JUK,BGUT,UKK,,https://en.wikipedia.org/wiki/Ukkusissat_Heliport,,乌库萨萨特直升机场
117,BIAR,large_airport,Akureyri International Airport,65.656573,-18.072018,6,EU,IS,IS-6,Akureyri,yes,BIAR,AEY,BIAR,,https://www.innanlandsflugvellir.is/en/akureyri-airport/,https://en.wikipedia.org/wiki/Akureyri_Airport,,阿克雷里国际机场
119,BIEG,medium_airport,Egilsstaðir Airport,65.2833023071289,-14.401399612426758,76,EU,IS,IS-7,Egilsstaðir,yes,BIEG,EGS,BIEG,,,https://en.wikipedia.org/wiki/Egilssta%C3%B0ir_Airport,,埃伊尔斯塔济机场
31549,BIGR,medium_airport,Grímsey Airport,66.5458,-18.0173,66,EU,IS,IS-6,Grímsey/Sandvík,yes,BIGR,GRY,BIGR,,https://www.innanlandsflugvellir.is/en/grimsey-airport,https://en.wikipedia.org/wiki/Gr%C3%ADmsey_Airport,Sandvík,格里姆西机场
120,BIHN,medium_airport,Hornafjörður Airport,64.295601,-15.2272,24,EU,IS,IS-8,Höfn,yes,BIHN,HFN,BIHN,,,https://en.wikipedia.org/wiki/Hornafj%C3%B6r%C3%B0ur_Airport,,霍纳菲厄泽机场
122,BIIS,medium_airport,Ísafjörður Airport,66.058098,-23.1353,8,EU,IS,IS-4,Ísafjörður,yes,BIIS,IFJ,BIIS,,https://www.isavia.is/en/isafjordur-airport,https://en.wikipedia.org/wiki/%C3%8Dsafj%C3%B6r%C3%B0ur_Airport,,伊萨菲厄泽机场
123,BIKF,large_airport,Keflavik International Airport,63.985001,-22.6056,171,EU,IS,IS-2,Reykjavík,yes,BIKF,KEF,BIKF,,https://www.isavia.is/en/keflavik-airport,https://en.wikipedia.org/wiki/Keflav%C3%ADk_International_Airport,"Keflavik Naval Air Station, REK",凯夫拉维克国际机场
125,BIRK,medium_airport,Reykjavík Domestic Airport,64.128732,-21.93759,48,EU,IS,IS-1,Reykjavík,yes,BIRK,RKV,BIRK,,,https://en.wikipedia.org/wiki/Reykjav%C3%ADk_Airport,REK,雷克雅未克国内机场
127,BITN,small_airport,Þórshöfn Airport,66.218459,-15.334739,65,EU,IS,IS-6,Þórshöfn,yes,BITN,THO,BITN,,,https://en.wikipedia.org/wiki/Thorshofn_Airport,Thorshofn,欧修芬机场
32593,BIVO,medium_airport,Vopnafjörður Airport,65.720596,-14.8506,16,EU,IS,IS-7,Vopnafjörður,yes,BIVO,VPN,BIVO,,,https://en.wikipedia.org/wiki/Vopnafj%C3%B6r%C3%B0ur_Airport,,沃普纳菲厄泽机场
312172,BJT,seaplane_base,Bentota River Waterdrome,6.431,79.996,,AS,LK,LK-1,Bentota,yes,,BJT,,,,https://en.wikipedia.org/wiki/Bentota_River_Airport,,本托塔河水上运动场
4614,BKPR,large_airport,Priština Adem Jashari International Airport,42.5728,21.035801,1789,EU,XK,XK-01,Prishtina,yes,BKPR,PRN,BKPR,,http://www.airportpristina.com/,https://en.wikipedia.org/wiki/Pristina_International_Airport,"LYPR, Pristina, Slatina Air Base",普里什蒂纳阿德姆贾沙里国际机场
323824,BR-0263,small_airport,Pedro Vieira Moreira Airport,-6.8827,-38.61583,1099,SA,BR,BR-PB,Cajazeiras,yes,SJZA,CJZ,SJZA,PB0004,,https://en.wikipedia.org/wiki/Cajazeiras_Airport,,佩德罗·维埃拉·莫雷拉机场
327786,BR-0318,heliport,Cooperativa Lar Heliport,-25.27427,-54.067369,1601,SA,BR,BR-PR,Medianeira,yes,,,SSLC,,,,,合作拉尔直升机场
329000,BR-0352,heliport,N. S. A. Heliport,-22.7384254,-45.540062,5663,SA,BR,BR-SP,Campos do Jordão,yes,,,SNBK,SNBK,,,,N.S.A. 直升机场
331872,BR-0467,heliport,Batalhão de Operações Aéreas do CBMSC Heliport,-27.614324,-48.528333,13,SA,BR,BR-SC,Aéreas do CBMSC,yes,,,SSBO,SC0086,,,,CBMSC 直升机场运营指挥
333222,BR-0569,medium_airport,Glauber de Andrade Rocha Airport,-14.907885,-40.914804,2940,SA,BR,BR-BA,Vitória da Conquista,yes,SBVC,VDC,SBVC,BA0005,,https://en.wikipedia.org/wiki/Glauber_Rocha_Airport,SSVC,格劳伯德安德拉德罗查机场
335541,BR-0925,small_airport,Fazenda Rosa do Deserto Airstrip,-13.240032,-39.759292,1411,SA,BR,BR-BA,Ubaíra,yes,SDYG,,SDYG,BA0254,,,,Fazenda Rosa do Deserto 机场
46185,BR-3221,heliport,Eletrocity Heliport,-20.207646,-40.234916,75,SA,BR,BR-ES,Serra,yes,,,,,,,SSDR,电力城直升机场
35303,BS-NSB,seaplane_base,Bimini North Seaplane Base,25.767,-79.25,,NA,BS,BS-BI,Bimini,yes,,NSB,,,,https://en.wikipedia.org/wiki/North_Bimini_Airport,,比米尼北水上飞机基地
42216,BZ-BGK,small_airport,Big Creek Airport,16.519369,-88.407913,22,NA,BZ,BZ-SC,Big Creek,yes,MZBG,BGK,MZBG,,,https://en.wikipedia.org/wiki/Big_Creek_Airport_(Belize),,比格克里克机场
30861,BZ-CUK,medium_airport,Caye Caulker Airport,17.735015,-88.032862,2,NA,BZ,BZ-BZ,Caye Caulker,yes,MZCK,CUK,MZCK,,,https://en.wikipedia.org/wiki/Caye_Caulker_Airport,,库尔克岛机场
30867,BZ-CYC,medium_airport,Caye Chapel Airport,17.683792,-88.044985,3,NA,BZ,BZ-BZ,Caye Chapel,yes,MZCP,CYC,MZCP,,,https://en.wikipedia.org/wiki/Caye_Chapel_Airport,,教堂岛机场
42209,BZ-CZH,medium_airport,Corozal Airport,18.3822,-88.411903,40,NA,BZ,BZ-CZL,Corozal,yes,MZCZ,CZH,MZCZ,,,https://en.wikipedia.org/wiki/Corozal_Airport,Ranchito Airport,科罗萨尔机场
42207,BZ-DGA,medium_airport,Dangriga Airport,16.98251,-88.230988,10,NA,BZ,BZ-SC,Dangriga,yes,MZPB,DGA,MZPB,,,https://en.wikipedia.org/wiki/Dangriga_Airport,Stann Creek Airport,丹格里加机场
42213,BZ-INB,small_airport,Independence Airport,16.53456,-88.441615,18,NA,BZ,BZ-SC,Independence,yes,MZSV,INB,MZSV,,,https://en.wikipedia.org/wiki/Independence_Airport_(Belize),"Savannah, Mango Creek",独立机场
42212,BZ-ORZ,small_airport,H.E Alfredo Martinez (Tower Hill) Airstrip,18.046767,-88.583858,69,NA,BZ,BZ-OW,Orange Walk,yes,MZTH,ORZ,MZAM,,,https://en.wikipedia.org/wiki/Orange_Walk_Airport,Orange Walk Airport,阿尔弗雷多·马丁内斯阁下（塔山）机场
35305,BZ-PND,small_airport,Punta Gorda Airport,16.1024,-88.808296,7,NA,BZ,BZ-TOL,Punta Gorda,yes,MZPG,PND,MZPG,PND,,https://en.wikipedia.org/wiki/Punta_Gorda_Airport_(Belize),,蓬塔戈尔达机场
32370,BZ-SPR,medium_airport,John Greif II Airport,17.9139,-87.9711,4,NA,BZ,BZ-CY,San Pedro,yes,MZSP,SPR,MZSP,,,https://en.wikipedia.org/wiki/San_Pedro_Airport,,约翰·格雷夫二世机场
42215,BZ-TZA,medium_airport,Sir Barry Bowen Municipal Airport,17.517239,-88.195775,8,NA,BZ,BZ-BZ,Belize City,yes,MZBE,TZA,MZBE,,,https://en.wikipedia.org/wiki/Belize_City_Municipal_Airport,Belize City Municipal,巴里·鲍文爵士市政机场
341397,CA-0732,seaplane_base,Poise Cove Waterdrome,49.49062,-123.75212,,NA,CA,CA-BC,Sechelt,yes,,,,,,,,普瓦斯湾水上乐园
524657,CA-0923,seaplane_base,Montague Harbour Seaplane Base,48.89225,-123.39215,,NA,CA,CA-BC,Galiano Island,yes,,YMF,,,,,,蒙塔古港水上飞机基地
28237,CAA7,seaplane_base,Gilford Island/Echo Bay Seaplane Base,50.766701,-126.483002,,NA,CA,CA-BC,Gilford Island,yes,,,CAA7,CAA7,,https://en.wikipedia.org/wiki/Gilford_Island/Echo_Bay_Water_Aerodrome,AA7,吉尔福德岛/回音湾水上飞机基地
28174,CAB3,seaplane_base,Bedwell Harbour Seaplane Base,48.75,-123.233002,,NA,CA,CA-BC,Bedwell Harbour,yes,,YBW,CAB3,CAB3,,https://en.wikipedia.org/wiki/Bedwell_Harbour_Water_Aerodrome,AB3,贝德韦尔港水上飞机基地
28447,CAB4,seaplane_base,Tofino Harbour Seaplane Base,49.155,-125.91,,NA,CA,CA-BC,Tofino,yes,,YTP,CAB4,CAB4,,https://en.wikipedia.org/wiki/Tofino_Harbour_Water_Aerodrome,AB4,托菲诺港水上飞机基地
28332,CAC8,seaplane_base,Nanaimo Harbour Water Aerodrome,49.169813,-123.933845,,NA,CA,CA-BC,Nanaimo,yes,,ZNA,CAC8,CAC8,,https://en.wikipedia.org/wiki/Nanaimo_Harbour_Water_Airport,AC8,纳奈莫港水上机场
614,CAD4,small_airport,Trail Regional Airport,49.055599,-117.609001,1427,NA,CA,CA-BC,Trail,yes,,YZZ,CAD4,CAD4,,https://en.wikipedia.org/wiki/Trail_Airport,AD4,特雷尔地区机场
28187,CAE3,seaplane_base,Campbell River Seaplane Base,50.049999,-125.25,,NA,CA,CA-BC,Campbell River,yes,,YHH,CAE3,CAE3,,https://en.wikipedia.org/wiki/Campbell_River_Water_Aerodrome,"AE3, Campbell River Harbour Airport",坎贝尔河水上飞机基地
28465,CAE5,seaplane_base,Whistler/Green Lake Water Aerodrome,50.1436004639,-122.948997498,2100,NA,CA,CA-BC,Whistler,yes,,YWS,CAE5,CAE5,,https://en.wikipedia.org/wiki/Whistler/Green_Lake_Water_Aerodrome,AE5,惠斯勒/绿湖水上机场
28169,CAE9,seaplane_base,Bamfield Seaplane Base,48.835967,-125.137453,,NA,CA,CA-BC,Bamfield,yes,,YBF,CAE9,CAE9,,https://en.wikipedia.org/wiki/Bamfield_Water_Aerodrome,AE9,班菲尔德水上飞机基地
28177,CAF6,seaplane_base,Big Bay Seaplane Base,50.3923,-125.1372,,NA,CA,CA-BC,Stuart Island,yes,,YIG,CAF6,CAF6,,https://en.wikipedia.org/wiki/Big_Bay_Water_Aerodrome,AF6,大湾水上飞机基地
624,CAJ4,medium_airport,Anahim Lake Airport,52.451501,-125.303776,3635,NA,CA,CA-BC,Anahim Lake,yes,,YAA,CAJ4,CAJ4,,https://en.wikipedia.org/wiki/Anahim_Lake_Airport,AJ4,阿纳希姆湖机场
28370,CAJ8,seaplane_base,Pitt Meadows Seaplane Base,49.209215,-122.709646,6,NA,CA,CA-BC,,yes,,,CAJ8,CAJ8,,https://en.wikipedia.org/wiki/Pitt_Meadows_Water_Aerodrome,AJ8,皮特梅多斯水上飞机基地
626,CAJ9,small_airport,Fort Ware Airport,57.427857,-125.648189,2450,NA,CA,CA-BC,Fort Ware,yes,,,CAJ9,CAJ9,,https://en.wikipedia.org/wiki/Fort_Ware_Airport,AJ9,韦尔堡机场
28454,CAM9,seaplane_base,Vancouver International Seaplane Base,49.177047,-123.168154,0,NA,CA,CA-BC,Vancouver,yes,,,CAM9,CAM9,,https://en.wikipedia.org/wiki/Vancouver_International_Water_Airport,AM9,温哥华国际水上飞机基地
28450,CAN3,seaplane_base,Ucluelet Seaplane Base,48.950003,-125.550005,,NA,CA,CA-BC,Ucluelet,yes,,,CAN3,CAN3,,https://en.wikipedia.org/wiki/Ucluelet_Water_Aerodrome,AN3,尤克卢利特水上飞机基地
28458,CAP5,seaplane_base,Victoria Airport Water Aerodrome,48.653892,-123.450451,,NA,CA,CA-BC,Victoria,yes,,,CAP5,CAP5,,https://en.wikipedia.org/wiki/Victoria_Airport_Water_Aerodrome,AP5,维多利亚机场水上机场
28383,CAP8,seaplane_base,Port Washington Seaplane Base,48.812,-123.321,,NA,CA,CA-BC,Port Washington,yes,,,,,,https://en.wikipedia.org/wiki/Port_Washington_Water_Aerodrome,"AP8, CAP8",华盛顿港水上飞机基地
28384,CAQ8,seaplane_base,Powell Lake Seaplane Base,49.887335,-124.53372,174,NA,CA,CA-BC,Powell River,yes,,WPL,CAQ8,CAQ8,,https://en.wikipedia.org/wiki/Powell_Lake_Water_Aerodrome,,鲍威尔湖水上飞机基地
643,CAT4,medium_airport,Qualicum Beach Airport,49.337456,-124.393086,191,NA,CA,CA-BC,Qualicum Beach,yes,,XQU,CAT4,CAT4,http://www.qualicumbeach.com/cms.asp?wpID=437,https://en.wikipedia.org/wiki/Qualicum_Beach_Airport,AT4,魁利克姆海滩机场
644,CAT5,small_airport,Port McNeill Airport,50.57348,-127.027702,225,NA,CA,CA-BC,Port McNeill,yes,,YMP,CAT5,CAT5,,https://en.wikipedia.org/wiki/Port_McNeill_Airport,AT5,麦克尼尔港机场
28432,CAV5,seaplane_base,Sullivan Bay Seaplane Base,50.885359,-126.831069,,NA,CA,CA-BC,Sullivan Bay,yes,,YTG,CAV5,CAV5,,https://en.wikipedia.org/wiki/Sullivan_Bay_Water_Aerodrome,,沙利文湾水上飞机基地
28315,CAW7,seaplane_base,Mayne Island Seaplane Base,48.852241,-123.301982,,NA,CA,CA-BC,Miners Bay,yes,,YAV,,,,https://en.wikipedia.org/wiki/Mayne_Island_Water_Aerodrome,CAW7,梅恩岛水上飞机基地
314219,CAX3,seaplane_base,Sechelt/Porpoise Bay Water Aerodrome,49.483,-123.7577,,NA,CA,CA-BC,Sechelt,yes,,,,,,https://en.wikipedia.org/wiki/Sechelt/Porpoise_Bay_Water_Aerodrome,"AX3, CAX3",塞切尔特/海豚湾水上机场
28235,CAX6,seaplane_base,Ganges Seaplane Base,48.8545,-123.4969,0,NA,CA,CA-BC,Salt Spring Island,yes,,YGG,CAX6,CAX6,,https://en.wikipedia.org/wiki/Ganges_Water_Aerodrome,,恒河水上飞机基地
28319,CAX7,seaplane_base,Minstrel Island Seaplane Base,50.608299,-126.306038,,NA,CA,CA-BC,Minstrel Island/Lagoon Cove,yes,,,,,,https://en.wikipedia.org/wiki/Minstrel_Island_Water_Aerodrome,CAX7,吟游诗人岛水上飞机基地
659,CBA9,small_airport,Ospika Airport,56.271002,-124.063282,2300,NA,CA,CA-BC,Ospika,yes,,,CBA9,CBA9,,https://en.wikipedia.org/wiki/Ospika_Airport,BA9,奥斯皮卡机场
664,CBBC,medium_airport,Bella Bella (Campbell Island) Airport,52.185001,-128.156994,141,NA,CA,CA-BC,Bella Bella,yes,CBBC,ZEL,CBBC,CBBC,,https://en.wikipedia.org/wiki/Bella_Bella_(Campbell_Island)_Airport,BBC,贝拉贝拉（坎贝尔岛）机场
667,CBC7,heliport,Harbour (Public) Heliport,49.286892,-123.106112,2,NA,CA,CA-BC,Vancouver,yes,,,CBC7,CBC7,,,BC7,港口（公共）直升机场
680,CBF7,heliport,Victoria Harbour (Camel Point) Heliport,48.418098,-123.388,15,NA,CA,CA-BC,Victoria,yes,,,CBF7,CBF7,,,BF7,维多利亚港（骆驼角）直升机场
703,CBN9,small_airport,Tsay Keh Airport,56.906101,-124.964996,2280,NA,CA,CA-BC,Tsay Keh,yes,,,CBN9,CBN9,,https://en.wikipedia.org/wiki/Tsay_Keh_Airport,,蔡克机场
743,CCA6,small_airport,Williams Harbour Airport,52.567377,-55.784883,70,NA,CA,CA-NL,Williams Harbour,yes,,YWM,CCA6,CCA6,,https://en.wikipedia.org/wiki/Williams_Harbour_Airport,,威廉斯港机场
750,CCD4,small_airport,Postville Airport,54.9105,-59.78507,193,NA,CA,CA-NL,Postville,yes,,YSO,CCD4,CCD4,,https://en.wikipedia.org/wiki/Postville_Airport,CD4,波斯特维尔机场
752,CCE4,small_airport,Black Tickle Airport,53.469836,-55.787501,57,NA,CA,CA-NL,Black Tickle,yes,,YBI,CCE4,CCE4,,https://en.wikipedia.org/wiki/Black_Tickle_Airport,CE4,黑痒机场
758,CCH4,small_airport,Charlottetown Airport,52.765774,-56.11237,209,NA,CA,CA-NL,Charlottetown,yes,,YHG,CCH4,CCH4,,https://en.wikipedia.org/wiki/Charlottetown_Airport_(Newfoundland),CH4,夏洛特敦机场
764,CCK4,small_airport,St. Lewis (Fox Harbour) Airport,52.372799,-55.673901,74,NA,CA,CA-NL,St. Lewis,yes,,YFX,CCK4,CCK4,,https://en.wikipedia.org/wiki/St._Lewis_(Fox_Harbour)_Airport,CK4,圣刘易斯（福克斯港）机场
771,CCP4,small_airport,Port Hope Simpson Airport,52.528099060058594,-56.28609848022461,347,NA,CA,CA-NL,Port Hope Simpson,yes,,YHA,CCP4,CCP4,,https://en.wikipedia.org/wiki/Port_Hope_Simpson_Airport,CP4,霍普港辛普森机场
776,CCR6,heliport,Campbell River (E & B Heli) Heliport,50.041349,-125.26857,7,NA,CA,CA-BC,Campbell River,yes,,,CCR6,CCR6,,,,坎贝尔河 (E & B Heli) 直升机场
28200,CCX6,seaplane_base,Comox Seaplane Base,49.670601,-124.932999,0,NA,CA,CA-BC,Comox,yes,,,CCX6,CCX6,,https://en.wikipedia.org/wiki/Comox_Water_Aerodrome,AL6,科莫克斯水上飞机基地
793,CCZ2,small_airport,Rigolet Airport,54.1796989440918,-58.45750045776367,180,NA,CA,CA-NL,Rigolet,yes,,YRG,CCZ2,CCZ2,,https://en.wikipedia.org/wiki/Rigolet_Airport,CZ2,里戈莱机场
320432,CDH5,heliport,Nanaimo Harbour Heliport,49.160814,-123.923217,12,NA,CA,CA-BC,Nanaimo,yes,,,CDH5,CDH5,,,,纳奈莫港直升机场
874,CEM3,small_airport,Whatì Airport,63.131699,-117.246002,882,NA,CA,CA-NT,Whatì,yes,,YLE,CEM3,CEM3,,https://en.wikipedia.org/wiki/What%C3%AC_Airport,"EM3, Lac la Martre, Wha Ti",瓦蒂机场
16712,CGA,seaplane_base,Craig Seaplane Base,55.478802,-133.147995,,NA,US,US-AK,Craig,yes,,CGA,CGA,CGA,,https://en.wikipedia.org/wiki/Craig_Seaplane_Base,,克雷格水上飞机基地
1051,CJB6,small_airport,Gods Lake Airport,54.780469,-93.718228,605,NA,CA,CA-MB,Gods Lake,yes,,,CJB6,CJB6,,https://en.wikipedia.org/wiki/Gods_Lake_Airport,JB6,神湖机场
1139,CJV7,small_airport,Summer Beaver Airport,52.70859909057617,-88.54190063476562,832,NA,CA,CA-ON,Summer Beaver,yes,,SUR,CJV7,CJV7,,https://en.wikipedia.org/wiki/Summer_Beaver_Airport,JV7,萨默比弗机场
16716,CJX,small_airport,Crooked Creek Airport,61.870315,-158.137636,178,NA,US,US-AK,Crooked Creek,yes,PACJ,CKD,PACJ,CJX,,https://en.wikipedia.org/wiki/Crooked_Creek_Airport,,克鲁克克里克机场
1162,CKB6,small_airport,Wapekeka Airport,53.84920120239258,-89.57939910888672,712,NA,CA,CA-ON,Angling Lake,yes,,YAX,CKB6,CKB6,,https://en.wikipedia.org/wiki/Angling_Lake/Wapekeka_Airport,KB6,瓦佩基卡机场
1172,CKD9,small_airport,Slate Falls Airport,51.130001,-91.665604,1355,NA,CA,CA-ON,Slate Falls,yes,,,CKD9,CKD9,,https://en.wikipedia.org/wiki/Slate_Falls_Airport,KD9,斯莱特福尔斯机场
1200,CKL3,small_airport,Wunnumin Lake Airport,52.893902,-89.2892,819,NA,CA,CA-ON,Wunnumin Lake,yes,,WNN,CKL3,CKL3,,https://en.wikipedia.org/wiki/Wunnummin_Lake_Airport,,温努明湖机场
1218,CKQ3,small_airport,North Spirit Lake Airport,52.4900016784668,-92.97109985351562,1082,NA,CA,CA-ON,North Spirit Lake,yes,,YNO,CKQ3,CKQ3,,https://en.wikipedia.org/wiki/North_Spirit_Lake_Airport,KQ3,北斯皮里特湖机场
16718,CKX,small_airport,Chicken Airport,64.066495,-141.951342,1640,NA,US,US-AK,Chicken,yes,,CKX,CKX,CKX,,https://en.wikipedia.org/wiki/Chicken_Airport,,鸡机场
323881,CN-0062,medium_airport,Bazhong Enyang Airport,31.73842,106.644872,1804,AS,CN,CN-51,Bazhong,yes,ZUBZ,BZX,ZUBZ,BZX,,https://en.wikipedia.org/wiki/Bazhong_Enyang_Airport,,巴中恩阳机场
44157,CN-0079,medium_airport,Shaoguan Danxia Airport,24.9786,113.420998,280,AS,CN,CN-44,Shaoguan,yes,ZGSG,HSC,ZGSG,,,https://en.wikipedia.org/wiki/Shaoguan_Danxia_Airport,"Shaoguan Air Base, Shaoguan Guitou Airport",韶关丹霞机场
44159,CN-0081,medium_airport,Jinggangshan Airport,26.856899,114.737,281,AS,CN,CN-36,Ji'an,yes,ZSGS,JGS,ZSGS,,,https://en.wikipedia.org/wiki/Ji%27an_Jinggangshan_Airport,"Tiahe Air Base, Ji'an Airport",井冈山机场
340835,CN-0122,heliport,Fuzhou Zhuqi Heliport,26.123997,119.11389,200,AS,CN,CN-35,Fuzhou (Minhou),yes,,,,,,,,福州竹崎直升机场
44232,CN-0154,medium_airport,Jiaxing Nanhu Airport,30.698056,120.663056,15,AS,CN,CN-33,"Xiuzhou, Hangzhou",yes,ZSJX,JNH,ZSJX,,,https://en.wikipedia.org/wiki/Jiaxing_Airport,,嘉兴南湖机场
350882,CN-0236,medium_airport,Shigatse Tingri Airport,28.604567,86.798,14108,AS,CN,CN-54,Xigazê (Dingri),yes,ZUDR,DDR,ZUDR,,,https://en.wikipedia.org/wiki/Shigatse_Tingri_Airport,Rikaze Dingri,日喀则定日机场
350883,CN-0237,medium_airport,Tashikuergan Hongqilafu Airport,37.661333,75.288877,10499,AS,CN,CN-65,Tashikuergan,yes,ZWTK,HQL,ZWTK,,,https://en.wikipedia.org/wiki/Tashkurgan_Airport,,塔什库尔干红其拉甫机场
350945,CN-0249,medium_airport,Leshan Airport,29.438627,103.749218,1189,AS,CN,CN-51,Leshan (Wutongqiao),yes,,LSG,,,,,,乐山机场
355952,CN-0359,small_airport,Zhaosu Tianma Airport,43.088477,81.223013,,AS,CN,CN-65,Zhaosu,yes,ZWZS,ZFL,ZWZS,,,https://en.wikipedia.org/wiki/Zhaosu_Tianma_Airport,,昭苏天马机场
525153,CN-0415,small_airport,Hejing Bayinbuluke Airport,42.976395,83.995543,8219,AS,CN,CN-65,Hejing,yes,ZWHJ,HJB,ZWHJ,,,https://en.wikipedia.org/wiki/Hejing_Bayinbuluke_Airport,,河靖巴音布鲁克机场
525757,CN-0417,small_airport,Qitai Jiangbulake Airport,44.166086,89.55014,,AS,CN,CN-65,Qitai,yes,ZWQT,JBK,ZWQT,,,https://en.wikipedia.org/wiki/Qitai_Jiangbulake_Airport,,奇台江布拉克机场
598595,CN-0476,medium_airport,Bengbu Tenghu Airport,33.166292,117.058344,,AS,CN,CN-34,Bengbu,yes,ZSBA,BFY,ZSBA,,,https://en.wikipedia.org/wiki/Bengbu_Tenghu_Airport,蚌埠滕湖机场,蚌埠腾湖机场
1299,CNE3,small_airport,Bearskin Lake Airport,53.965599060058594,-91.0271987915039,800,NA,CA,CA-ON,Bearskin Lake,yes,,XBE,CNE3,CNE3,,https://en.wikipedia.org/wiki/Bearskin_Lake_Airport,NE3,贝尔斯金湖机场
1308,CNH2,small_airport,Natuashish Airport,55.913898,-61.184399,30,NA,CA,CA-NL,Natuashish,yes,,YNP,CNH2,CNH2,,https://en.wikipedia.org/wiki/Natuashish_Airport,NH2,纳图阿什什机场
1324,CNM5,small_airport,Kingfisher Lake Airport,53.01250076293945,-89.85530090332031,866,NA,CA,CA-ON,Kingfisher Lake,yes,,KIF,CNM5,CNM5,,https://en.wikipedia.org/wiki/Kingfisher_Lake_Airport,NM5,翠鸟湖机场
41597,CO-LCR,small_airport,Virgilio Barco Vargas (La Chorrera) Airport,-1.456361,-72.801086,564,SA,CO,CO-AMA,La Chorrera,yes,,LCR,SKHZ,,,https://en.wikipedia.org/wiki/La_Chorrera_Airport,,维吉利奥·巴尔科·巴尔加斯（拉乔雷拉）机场
1466,CPV8,small_airport,Keewaywin Airport,52.9911,-92.836403,988,NA,CA,CA-ON,Keewaywin,yes,,KEW,CPV8,CPV8,,https://en.wikipedia.org/wiki/Keewaywin_Airport,,基韦温机场
28373,CPW9,seaplane_base,Port Alberni Seaplane Base,49.231899,-124.815002,,NA,CA,CA-BC,Port Alberni,yes,,,CPW9,CPW9,,https://en.wikipedia.org/wiki/Port_Alberni_Water_Aerodrome,,艾伯尼港水上飞机基地
355458,CRHA,small_airport,Streatham Reef Hueston Airfield,53.822569,-126.172957,,NA,CA,CA-BC,Streatham,yes,,,CRHA,CRHA,,,,斯特里汉姆礁休斯顿机场
1563,CSU2,small_airport,Chisasibi Airport,53.805599212646484,-78.91690063476562,43,NA,CA,CA-QC,Chisasibi,yes,,YKU,CSU2,CSU2,,https://en.wikipedia.org/wiki/Chisasibi_Airport,SU2,奇萨斯比机场
1590,CTB6,small_airport,Tête-à-la-Baleine Airport,50.674400329589844,-59.38359832763672,107,NA,CA,CA-QC,Tête-à-la-Baleine,yes,,ZTB,CTB6,CTB6,,https://en.wikipedia.org/wiki/T%C3%AAte-%C3%A0-La-Baleine_Airport,TB6,泰特拉巴莱恩机场
1617,CTT5,small_airport,La Romaine Airport,50.259553,-60.674357,90,NA,CA,CA-QC,Le Golfe-du-Saint-Laurent,yes,,ZGS,CTT5,CTT5,,https://en.wikipedia.org/wiki/La_Romaine_Airport,"Gethsemani, La Romaine",拉罗马机场
1619,CTU5,small_airport,La Tabatière Airport,50.8307991027832,-58.97560119628906,102,NA,CA,CA-QC,La Tabatière,yes,,ZLT,CTU5,CTU5,,https://en.wikipedia.org/wiki/La_Tabati%C3%A8re_Airport,TU5,拉塔巴蒂耶尔机场
46596,CYAB,small_airport,Arctic Bay Airport,73.006101,-85.04616,72,NA,CA,CA-NU,Arctic Bay,yes,CYAB,YAB,CYAB,,,https://en.wikipedia.org/wiki/Arctic_Bay_Airport,CJX7,北极湾机场
1652,CYAC,small_airport,Cat Lake Airport,51.7272,-91.824402,1344,NA,CA,CA-ON,Cat Lake,yes,CYAC,YAC,CYAC,,,https://en.wikipedia.org/wiki/Cat_Lake_Airport,,猫湖机场
1654,CYAG,medium_airport,Fort Frances Municipal Airport,48.655749,-93.44349,1125,NA,CA,CA-ON,Fort Frances,yes,CYAG,YAG,CYAG,,,https://en.wikipedia.org/wiki/Fort_Frances_Municipal_Airport,,弗朗西斯堡市立机场
1656,CYAL,small_airport,Alert Bay Airport,50.582199,-126.916,240,NA,CA,CA-BC,Alert Bay,yes,CYAL,YAL,CYAL,,,https://en.wikipedia.org/wiki/Alert_Bay_Airport,,阿尔特湾机场
1657,CYAM,medium_airport,Sault Ste Marie Airport,46.483216,-84.508467,630,NA,CA,CA-ON,Sault Ste Marie,yes,CYAM,YAM,CYAM,,http://www.saultairport.com/,https://en.wikipedia.org/wiki/Sault_Ste._Marie_Airport,,苏圣玛丽机场
1658,CYAQ,medium_airport,Kasabonika Airport,53.52470016479492,-88.6427993774414,672,NA,CA,CA-ON,Kasabonika,yes,CYAQ,XKS,CYAQ,,,https://en.wikipedia.org/wiki/Kasabonika_Airport,YAQ,卡萨博尼卡机场
1659,CYAS,small_airport,Kangirsuk Airport,60.027199,-69.999199,403,NA,CA,CA-QC,Kangirsuk,yes,CYAS,YKG,CYAS,,,https://en.wikipedia.org/wiki/Kangirsuk_Airport,YAS,坎吉尔苏克机场
1660,CYAT,small_airport,Attawapiskat Airport,52.927502,-82.4319,31,NA,CA,CA-ON,Attawapiskat,yes,CYAT,YAT,CYAT,,,https://en.wikipedia.org/wiki/Attawapiskat_Airport,,阿塔瓦皮斯卡特机场
1662,CYAV,medium_airport,Winnipeg / St. Andrews Airport,50.0564,-97.032501,760,NA,CA,CA-MB,Winnipeg/Saint Andrews,yes,CYAV,,CYAV,,,https://en.wikipedia.org/wiki/Winnipeg/St._Andrews_Airport,YAV,温尼伯/圣安德鲁斯机场
1664,CYAX,medium_airport,Lac du Bonnet Airport,50.294399,-96.010002,850,NA,CA,CA-MB,Lac du Bonnet,yes,CYAX,,CYAX,,,https://en.wikipedia.org/wiki/Lac_du_Bonnet_Airport,YAX,博内湖机场
1665,CYAY,medium_airport,St. Anthony Airport,51.391909,-56.08321,108,NA,CA,CA-NL,St. Anthony,yes,CYAY,YAY,CYAY,,,https://en.wikipedia.org/wiki/St._Anthony_Airport,,圣安东尼机场
1666,CYAZ,medium_airport,Tofino / Long Beach Airport,49.079833,-125.775583,80,NA,CA,CA-BC,Tofino,yes,CYAZ,YAZ,CYAZ,,http://www.acrd.bc.ca/long-beach-airport,https://en.wikipedia.org/wiki/Tofino_Airport,,托菲诺/长滩机场
1668,CYBB,small_airport,Kugaaruk Airport,68.535711,-89.805508,56,NA,CA,CA-NU,Kugaaruk,yes,CYBB,YBB,CYBB,,,https://en.wikipedia.org/wiki/Kugaaruk_Airport,"YBB, Pelly Bay Townsite Airport",库加鲁克机场
1669,CYBC,medium_airport,Baie-Comeau Airport,49.1325,-68.204399,71,NA,CA,CA-QC,Baie-Comeau,yes,CYBC,YBC,CYBC,YBC,,https://en.wikipedia.org/wiki/Baie-Comeau_Airport,,拜科莫机场
1670,CYBD,medium_airport,Bella Coola Airport,52.387501,-126.596001,117,NA,CA,CA-BC,Bella Coola,yes,CYBD,QBC,CYBD,,,https://en.wikipedia.org/wiki/Bella_Coola_Airport,YBD,贝拉库拉机场
1671,CYBE,small_airport,Uranium City Airport,59.561401,-108.481003,1044,NA,CA,CA-SK,Uranium City,yes,CYBE,YBE,CYBE,,,https://en.wikipedia.org/wiki/Uranium_City_Airport,,铀城机场
1672,CYBF,medium_airport,Bonnyville Airport,54.304199,-110.744003,1836,NA,CA,CA-AB,Bonnyville,yes,CYBF,YBY,CYBF,,http://town.bonnyville.ab.ca/livingin/airport/index.html,https://en.wikipedia.org/wiki/Bonnyville_Airport,YBF,邦尼维尔机场
1673,CYBG,medium_airport,Saguenay-Bagotville Airport,48.330123,-70.992012,522,NA,CA,CA-QC,Saguenay,yes,CYBG,YBG,CYBG,,,https://en.wikipedia.org/wiki/CFB_Bagotville,Bagotville Airport,萨格奈-巴戈特维尔机场
1674,CYBK,medium_airport,Baker Lake Airport,64.29889678960001,-96.077796936,59,NA,CA,CA-NU,Baker Lake,yes,CYBK,YBK,CYBK,,,https://en.wikipedia.org/wiki/Baker_Lake_Airport,,贝克湖机场
1675,CYBL,medium_airport,Campbell River Airport,49.950802,-125.271004,346,NA,CA,CA-BC,Campbell River,yes,CYBL,YBL,CYBL,YBL,,https://en.wikipedia.org/wiki/Campbell_River_Airport,,坎贝尔河机场
1677,CYBQ,small_airport,Tadoule Lake Airport,58.706308,-98.511057,923,NA,CA,CA-MB,Tadoule Lake,yes,CYBQ,XTL,CYBQ,,,https://en.wikipedia.org/wiki/Tadoule_Lake_Airport,YBQ,塔杜勒湖机场
1678,CYBR,medium_airport,Brandon Municipal Airport,49.91,-99.951897,1343,NA,CA,CA-MB,Brandon,yes,CYBR,YBR,CYBR,,,https://en.wikipedia.org/wiki/Brandon_Airport,,布兰登市立机场
1679,CYBT,small_airport,Brochet Airport,57.8894,-101.679001,1136,NA,CA,CA-MB,Brochet,yes,CYBT,YBT,CYBT,,,https://en.wikipedia.org/wiki/Brochet_Airport,,布罗切特机场
1681,CYBV,small_airport,Berens River Airport,52.358898,-97.018303,728,NA,CA,CA-MB,Berens River,yes,CYBV,YBV,CYBV,,,https://en.wikipedia.org/wiki/Berens_River_Airport,,贝伦斯河机场
1683,CYBX,medium_airport,Lourdes-de-Blanc-Sablon Airport,51.4436,-57.185299,121,NA,CA,CA-QC,Blanc-Sablon,yes,CYBX,YBX,CYBX,,,https://en.wikipedia.org/wiki/Lourdes-de-Blanc-Sablon_Airport,,卢尔德布兰克萨布隆机场
1684,CYCA,small_airport,Cartwright Airport,53.682501,-57.042303,40,NA,CA,CA-NL,Cartwright,yes,CYCA,YRF,CYCA,,,https://en.wikipedia.org/wiki/Cartwright_Airport,YCA,卡特赖特机场
1685,CYCB,medium_airport,Cambridge Bay Airport,69.1081008911,-105.138000488,90,NA,CA,CA-NU,Cambridge Bay,yes,CYCB,YCB,CYCB,,,https://en.wikipedia.org/wiki/Cambridge_Bay_Airport,,剑桥湾机场
1687,CYCD,medium_airport,Nanaimo Airport,49.05497,-123.869863,92,NA,CA,CA-BC,Nanaimo,yes,CYCD,YCD,CYCD,,https://www.ycd.ca/,https://en.wikipedia.org/wiki/Nanaimo_Airport,,纳奈莫机场
1689,CYCG,medium_airport,Castlegar/West Kootenay Regional Airport,49.296398,-117.632004,1624,NA,CA,CA-BC,Castlegar,yes,CYCG,YCG,CYCG,,https://www.wkrairport.ca/,https://en.wikipedia.org/wiki/Castlegar_Airport,,卡斯尔加/西库特尼地区机场
1691,CYCL,medium_airport,Charlo Airport,47.990799,-66.330299,132,NA,CA,CA-NB,Charlo,yes,CYCL,YCL,CYCL,,,https://en.wikipedia.org/wiki/Charlo_Airport,,查洛机场
1693,CYCO,small_airport,Kugluktuk Airport,67.816408,-115.14307,74,NA,CA,CA-NU,Kugluktuk,yes,CYCO,YCO,CYCO,,,https://en.wikipedia.org/wiki/Kugluktuk_Airport,Copper Mine Airport,库格鲁克图克机场
1696,CYCR,small_airport,Cross Lake (Charlie Sinclair Memorial) Airport,54.609758,-97.762442,709,NA,CA,CA-MB,Cross Lake,yes,CYCR,YCR,CYCR,,,https://en.wikipedia.org/wiki/Cross_Lake_(Charlie_Sinclair_Memorial)_Airport,,克罗斯湖（查理辛克莱纪念馆）机场
1697,CYCS,small_airport,Chesterfield Inlet Airport,63.346901,-90.731102,32,NA,CA,CA-NU,Chesterfield Inlet,yes,CYCS,YCS,CYCS,,,https://en.wikipedia.org/wiki/Chesterfield_Inlet_Airport,,切斯特菲尔德湾机场
1701,CYCY,small_airport,Clyde River Airport,70.486099,-68.516701,87,NA,CA,CA-NU,Clyde River,yes,CYCY,YCY,CYCY,,,https://en.wikipedia.org/wiki/Clyde_River_Airport,,克莱德河机场
1703,CYDA,medium_airport,Dawson City Airport,64.04309844970703,-139.1280059814453,1215,NA,CA,CA-YT,Dawson City,yes,CYDA,YDA,CYDA,,,https://en.wikipedia.org/wiki/Dawson_City_Airport,,道森市机场
1706,CYDF,medium_airport,Deer Lake Airport,49.208159,-57.396147,72,NA,CA,CA-NL,Deer Lake,yes,CYDF,YDF,CYDF,,https://deerlakeairport.com/,https://en.wikipedia.org/wiki/Deer_Lake_Airport_(Newfoundland),,鹿湖机场
1708,CYDL,small_airport,Dease Lake Airport,58.422199,-130.031998,2600,NA,CA,CA-BC,Dease Lake,yes,CYDL,YDL,CYDL,,,https://en.wikipedia.org/wiki/Dease_Lake_Airport,YDL,迪斯莱克机场
1710,CYDN,medium_airport,Dauphin Barker Airport,51.1008,-100.052002,999,NA,CA,CA-MB,Dauphin,yes,CYDN,YDN,CYDN,,,https://en.wikipedia.org/wiki/Dauphin_(Lt._Col_W.G._(Billy)_Barker_VC_Airport),,多芬·巴克机场
1712,CYDP,small_airport,Nain Airport,56.550778,-61.682224,22,NA,CA,CA-NL,Nain,yes,CYDP,YDP,CYDP,,,https://en.wikipedia.org/wiki/Nain_Airport,,纳因机场
1717,CYEG,large_airport,Edmonton International Airport,53.3097,-113.580002,2373,NA,CA,CA-AB,Edmonton,yes,CYEG,YEG,CYEG,CYEG,http://www.edmontonairports.com/,https://en.wikipedia.org/wiki/Edmonton_International_Airport,,埃德蒙顿国际机场
1718,CYEK,small_airport,Arviat Airport,61.0942,-94.070801,32,NA,CA,CA-NU,Arviat,yes,CYEK,YEK,CYEK,,,https://en.wikipedia.org/wiki/Arviat_Airport,,阿尔维亚特机场
1722,CYER,small_airport,Fort Severn Airport,56.018902,-87.676102,48,NA,CA,CA-ON,Fort Severn,yes,CYER,YER,CYER,,,https://en.wikipedia.org/wiki/Fort_Severn_Airport,,塞文堡机场
1726,CYEV,medium_airport,Inuvik Mike Zubko Airport,68.30419921880001,-133.483001709,224,NA,CA,CA-NT,Inuvik,yes,CYEV,YEV,CYEV,,,https://en.wikipedia.org/wiki/Inuvik_(Mike_Zubko)_Airport,,伊努维克·迈克·祖布科机场
1728,CYFA,small_airport,Fort Albany Airport,52.203451,-81.695194,48,NA,CA,CA-ON,Fort Albany,yes,CYFA,YFA,CYFA,,,https://en.wikipedia.org/wiki/Fort_Albany_Airport,,奥尔巴尼堡机场
1729,CYFB,medium_airport,Iqaluit Airport,63.756402,-68.555801,110,NA,CA,CA-NU,Iqaluit,yes,CYFB,YFB,CYFB,,,https://en.wikipedia.org/wiki/Iqaluit_Airport,Frobisher Bay Air Base,伊魁特机场
1730,CYFC,medium_airport,Fredericton International Airport,45.868697,-66.529891,68,NA,CA,CA-NB,Fredericton,yes,CYFC,YFC,CYFC,,,https://en.wikipedia.org/wiki/Greater_Fredericton_Airport,,弗雷德里克顿国际机场
1733,CYFH,small_airport,Fort Hope Airport,51.561901,-87.907799,899,NA,CA,CA-ON,Fort Hope,yes,CYFH,YFH,CYFH,,,https://en.wikipedia.org/wiki/Fort_Hope_Airport,,霍普堡机场
1735,CYFO,small_airport,Flin Flon Airport,54.678101,-101.681999,997,NA,CA,CA-MB,Flin Flon,yes,CYFO,YFO,CYFO,,,https://en.wikipedia.org/wiki/Flin_Flon_Airport,,弗林弗伦机场
1737,CYFS,medium_airport,Fort Simpson Airport,61.76020050048828,-121.23699951171875,555,NA,CA,CA-NT,Fort Simpson,yes,CYFS,YFS,CYFS,,,https://en.wikipedia.org/wiki/Fort_Simpson_Airport,,辛普森堡机场
1738,CYFT,small_airport,Makkovik Airport,55.077335,-59.187942,234,NA,CA,CA-NL,Makkovik,yes,CYFT,YMN,CYFT,,,https://en.wikipedia.org/wiki/Makkovik_Airport,YFT,马科维克机场
1742,CYGH,small_airport,Fort Good Hope Airport,66.240658,-128.647757,268,NA,CA,CA-NT,Fort Good Hope,yes,CYGH,YGH,CYGH,,,https://en.wikipedia.org/wiki/Fort_Good_Hope_Airport,,好望堡机场
1744,CYGL,medium_airport,La Grande Rivière Airport,53.625301361083984,-77.7042007446289,639,NA,CA,CA-QC,La Grande Rivière,yes,CYGL,YGL,CYGL,,,https://en.wikipedia.org/wiki/La_Grande_Rivi%C3%A8re_Airport,,拉格兰德里维耶尔机场
1746,CYGO,small_airport,Gods Lake Narrows Airport,54.55768,-94.490061,617,NA,CA,CA-MB,Gods Lake Narrows,yes,CYGO,YGO,CYGO,,,https://en.wikipedia.org/wiki/Gods_Lake_Narrows_Airport,,神湖海峡机场
1747,CYGP,medium_airport,Michel-Pouliot Gaspé Airport,48.774915,-64.481893,112,NA,CA,CA-QC,Gaspé,yes,CYGP,YGP,CYGP,,,https://en.wikipedia.org/wiki/Gasp%C3%A9_Airport,,米歇尔·普利奥·加斯佩机场
1749,CYGR,medium_airport,Îles-de-la-Madeleine Airport,47.425242,-61.778612,35,NA,CA,CA-QC,Les Îles-de-la-Madeleine,yes,CYGR,YGR,CYGR,,,https://en.wikipedia.org/wiki/%C3%8Eles-de-la-Madeleine_Airport,,马德莱娜岛机场
1750,CYGT,small_airport,Igloolik Airport,69.3647,-81.816101,174,NA,CA,CA-NU,Igloolik,yes,CYGT,YGT,CYGT,,,https://en.wikipedia.org/wiki/Igloolik_Airport,,伊格卢利克机场
1751,CYGV,medium_airport,Havre-Saint-Pierre Airport,50.281898,-63.611401,124,NA,CA,CA-QC,Havre-Saint-Pierre,yes,CYGV,YGV,CYGV,,,https://en.wikipedia.org/wiki/Havre_St-Pierre_Airport,,阿弗尔圣皮埃尔机场
1752,CYGW,medium_airport,Kuujjuarapik Airport,55.281898498535156,-77.76529693603516,34,NA,CA,CA-QC,Kuujjuarapik,yes,CYGW,YGW,CYGW,,,https://en.wikipedia.org/wiki/Kuujjuarapik_Airport,,库朱阿拉皮克机场
1753,CYGX,small_airport,Gillam Airport,56.35712,-94.711504,476,NA,CA,CA-MB,Gillam,yes,CYGX,YGX,CYGX,,,https://en.wikipedia.org/wiki/Gillam_Airport,,吉拉姆机场
1754,CYGZ,small_airport,Grise Fiord Airport,76.425823,-82.908583,146,NA,CA,CA-NU,Grise Fiord,yes,CYGZ,YGZ,CYGZ,,,https://en.wikipedia.org/wiki/Grise_Fiord_Airport,,格里斯峡湾机场
1755,CYHA,small_airport,Quaqtaq Airport,61.046398,-69.617798,103,NA,CA,CA-QC,Quaqtaq,yes,CYHA,YQC,CYHA,,,https://en.wikipedia.org/wiki/Quaqtaq_Airport,YHA,夸克塔克机场
28453,CYHC,seaplane_base,Vancouver Harbour Water Aerodrome,49.290739,-123.118541,,NA,CA,CA-BC,Vancouver,yes,CYHC,CXH,CYHC,,https://harbourair.com/locations/vancouver-harbour/,https://en.wikipedia.org/wiki/Vancouver_Harbour_Water_Aerodrome,"YHC, Vancouver Coal Harbour Seaplane Base",温哥华港水上机场
1760,CYHH,small_airport,Nemiscau Airport,51.691101,-76.135597,802,NA,CA,CA-QC,Nemiscau,yes,CYHH,YNS,CYHH,,,https://en.wikipedia.org/wiki/Nemiscau_Airport,YHH,内米斯考机场
1761,CYHI,small_airport,Ulukhaktok Holman Airport,70.762802,-117.806,117,NA,CA,CA-NT,Ulukhaktok,yes,CYHI,YHI,CYHI,,,https://en.wikipedia.org/wiki/Ulukhaktok/Holman_Airport,,乌鲁克托克霍尔曼机场
1762,CYHK,small_airport,Gjoa Haven Airport,68.635597,-95.849701,152,NA,CA,CA-NU,Gjoa Haven,yes,CYHK,YHK,CYHK,,,https://en.wikipedia.org/wiki/Gjoa_Haven_Airport,,乔阿港机场
1763,CYHM,medium_airport,John C. Munro Hamilton International Airport,43.17348,-79.931185,780,NA,CA,CA-ON,Hamilton,yes,CYHM,YHM,CYHM,,http://www.flyhi.ca/,https://en.wikipedia.org/wiki/Hamilton/John_C._Munro_International_Airport,Mount Hope Airport,约翰·芒罗汉密尔顿国际机场
1765,CYHO,small_airport,Hopedale Airport,55.448757,-60.228124,39,NA,CA,CA-NL,Hopedale,yes,CYHO,YHO,CYHO,,,https://en.wikipedia.org/wiki/Hopedale_Airport,CC5,霍普代尔机场
1465,CYHP,small_airport,Poplar Hill Airport,52.1133,-94.2556,1095,NA,CA,CA-ON,Poplar Hill,yes,CYHP,YHP,CYHP,CPV7,,https://en.wikipedia.org/wiki/Poplar_Hill_Airport,,白杨山机场
1766,CYHR,small_airport,Chevery Airport,50.468322,-59.637823,39,NA,CA,CA-QC,Chevery,yes,CYHR,YHR,CYHR,,,https://en.wikipedia.org/wiki/Chevery_Airport,,切贝利机场
1768,CYHU,medium_airport,Montréal / Saint-Hubert Metropolitan Airport,45.517502,-73.416901,90,NA,CA,CA-QC,Montréal,yes,CYHU,YHU,CYHU,,http://www.dashl.ca/,https://en.wikipedia.org/wiki/Montr%C3%A9al/St-Hubert_Airport,,蒙特利尔/圣休伯特大都会机场
1769,CYHY,medium_airport,Hay River / Merlyn Carter Airport,60.8396987915,-115.782997131,541,NA,CA,CA-NT,Hay River,yes,CYHY,YHY,CYHY,,,https://en.wikipedia.org/wiki/Hay_River_Airport,,海河/梅林卡特机场
1770,CYHZ,large_airport,Halifax / Stanfield International Airport,44.8807983398,-63.5085983276,477,NA,CA,CA-NS,Halifax,yes,CYHZ,YHZ,CYHZ,,http://www.hiaa.ca/,https://en.wikipedia.org/wiki/Halifax_International_Airport,Robert L. Stanfield International Airport,哈利法克斯/斯坦菲尔德国际机场
1773,CYIF,medium_airport,St Augustin Airport,51.2117,-58.658298,20,NA,CA,CA-QC,St-Augustin,yes,CYIF,YIF,CYIF,,,https://en.wikipedia.org/wiki/St-Augustin_Airport,Pakuashipi Airport,圣奥古斯丁机场
1774,CYIK,small_airport,Ivujivik Airport,62.417301,-77.925301,126,NA,CA,CA-QC,Ivujivik,yes,CYIK,YIK,CYIK,,,https://en.wikipedia.org/wiki/Ivujivik_Airport,,伊武吉维克机场
1775,CYIO,small_airport,Pond Inlet Airport,72.689494,-77.968941,181,NA,CA,CA-NU,Pond Inlet,yes,CYIO,YIO,CYIO,,,https://en.wikipedia.org/wiki/Pond_Inlet_Airport,,庞德因莱特机场
1776,CYIV,medium_airport,Island Lake Airport,53.857200622558594,-94.65360260009766,770,NA,CA,CA-MB,Island Lake,yes,CYIV,YIV,CYIV,,,https://en.wikipedia.org/wiki/Island_Lake_Airport,,岛湖机场
1783,CYJT,medium_airport,Stephenville Dymond International Airport,48.54339,-58.552892,84,NA,CA,CA-NL,Stephenville,yes,CYJT,YJT,CYJT,,https://cyjt.com/,https://en.wikipedia.org/wiki/Stephenville_Airport,Ernest Harmon AFB,史蒂芬维尔戴蒙德国际机场
1784,CYKA,medium_airport,Kamloops John Moose Fulton Field Regional Airport,50.703038,-120.448641,1133,NA,CA,CA-BC,Kamloops,yes,CYKA,YKA,CYKA,,,https://en.wikipedia.org/wiki/Kamloops_Airport,Fulton,坎卢普斯约翰穆斯富尔顿地区机场
1786,CYKD,small_airport,Aklavik/Freddie Carmichael Airport,68.223297,-135.00599,23,NA,CA,CA-NT,Aklavik,yes,CYKD,LAK,CYKD,,,https://en.wikipedia.org/wiki/Aklavik_Airport,YKD,阿克拉维克/弗雷迪·卡迈克尔机场
1787,CYKF,medium_airport,Region of Waterloo International Airport,43.4608,-80.378601,1054,NA,CA,CA-ON,Breslau,yes,CYKF,YKF,CYKF,,http://www.waterlooairport.ca/,https://en.wikipedia.org/wiki/Region_of_Waterloo_International_Airport,"Breslau, Kitchener, Waterloo, Cambridge, YKF",滑铁卢国际机场地区
1788,CYKG,small_airport,Kangiqsujuaq (Wakeham Bay) Airport,61.5886,-71.929398,501,NA,CA,CA-QC,Kangiqsujuaq,yes,CYKG,YWB,CYKG,,,https://en.wikipedia.org/wiki/Kangiqsujuaq_(Wakeham_Bay)_Airport,,康吉克苏朱阿克（韦克汉姆湾）机场
1790,CYKL,medium_airport,Schefferville Airport,54.805301666259766,-66.8052978515625,1709,NA,CA,CA-QC,Schefferville,yes,CYKL,YKL,CYKL,,,https://en.wikipedia.org/wiki/Schefferville_Airport,,谢弗维尔机场
1791,CYKO,small_airport,Akulivik Airport,60.8186,-78.148598,75,NA,CA,CA-QC,Akulivik,yes,CYKO,AKV,CYKO,,,https://en.wikipedia.org/wiki/Akulivik_Airport,YKO,阿库里维克机场
1343,CYKP,small_airport,Ogoki Post Airport,51.6585998535,-85.9017028809,594,NA,CA,CA-ON,Ogoki Post,yes,CYKP,YOG,CYKP,CYKP,,https://en.wikipedia.org/wiki/Ogoki_Post_Airport,NT3,奥戈基邮政机场
1792,CYKQ,small_airport,Waskaganish Airport,51.473301,-78.758301,80,NA,CA,CA-QC,Waskaganish,yes,CYKQ,YKQ,CYKQ,,,https://en.wikipedia.org/wiki/Waskaganish_Airport,,瓦斯卡加尼什机场
1796,CYLA,small_airport,Aupaluk Airport,59.2967,-69.599701,119,NA,CA,CA-QC,Aupaluk,yes,CYLA,YPJ,CYLA,,,https://en.wikipedia.org/wiki/Aupaluk_Airport,YLA,奥帕鲁克机场
1798,CYLC,small_airport,Kimmirut Airport,62.848253,-69.877853,175,NA,CA,CA-NU,Kimmirut,yes,CYLC,YLC,CYLC,,,https://en.wikipedia.org/wiki/Kimmirut_Airport,Lake Harbour,金米鲁特机场
1800,CYLH,small_airport,Lansdowne House Airport,52.195599,-87.934196,834,NA,CA,CA-ON,Lansdowne House,yes,CYLH,YLH,CYLH,,,https://en.wikipedia.org/wiki/Lansdowne_House_Airport,,兰斯当豪斯机场
1802,CYLK,small_airport,Lutselk'e Airport,62.417823,-110.682793,596,NA,CA,CA-NT,Lutselk'e,yes,CYLK,YSG,CYLK,,,https://en.wikipedia.org/wiki/Lutselk'e_Airport,"YLK, EL3, Snowdrift Airport",卢策尔克机场
1803,CYLL,medium_airport,Lloydminster Airport,53.3092,-110.072998,2193,NA,CA,CA-AB,Lloydminster,yes,CYLL,YLL,CYLL,,,https://en.wikipedia.org/wiki/Lloydminster_Airport,,劳埃德明斯特机场
1293,CYLS,medium_airport,Barrie-Lake Simcoe Regional Airport,44.485056,-79.554663,972,NA,CA,CA-ON,Barrie,yes,CYLS,YLK,CYLS,CYLS,http://www.lakesimcoeairport.com/,https://en.wikipedia.org/wiki/Barrie-Orillia_(Lake_Simcoe_Regional)_Airport,"NB9, CNB9, Oro Station",巴里-锡姆科湖地区机场
1807,CYLU,small_airport,Kangiqsualujjuaq (Georges River) Airport,58.711399,-65.992798,215,NA,CA,CA-QC,Kangiqsualujjuaq,yes,CYLU,XGR,CYLU,,,https://en.wikipedia.org/wiki/Kangiqsualujjuaq_(Georges_River)_Airport,YLU,乔治河机场
1808,CYLW,large_airport,Kelowna International Airport,49.9561,-119.377998,1421,NA,CA,CA-BC,Kelowna,yes,CYLW,YLW,CYLW,,http://www.kelowna.ca/CM/Page68.aspx,https://en.wikipedia.org/wiki/Kelowna_International_Airport,"Kelowna, Okanagan",基洛纳国际机场
17057,CYM,seaplane_base,Chatham Seaplane Base,57.5149,-134.945999,,NA,US,US-AK,Chatham,yes,,CYM,05AA,05AA,,https://en.wikipedia.org/wiki/Chatham_Seaplane_Base,CYM,查塔姆水上飞机基地
1812,CYMH,small_airport,Mary's Harbour Airport,52.302837,-55.847433,38,NA,CA,CA-NL,Mary's Harbour,yes,CYMH,YMH,CYMH,,,https://en.wikipedia.org/wiki/Mary's_Harbour_Airport,,玛丽港机场
1815,CYMM,medium_airport,Fort McMurray International Airport,56.653301,-111.222,1211,NA,CA,CA-AB,Fort McMurray,yes,CYMM,YMM,CYMM,,,https://en.wikipedia.org/wiki/Fort_McMurray_Airport,,麦克默里堡国际机场
1816,CYMO,medium_airport,Moosonee Airport,51.291099548339844,-80.60780334472656,30,NA,CA,CA-ON,Moosonee,yes,CYMO,YMO,CYMO,,,https://en.wikipedia.org/wiki/Moosonee_Airport,,穆索尼机场
1817,CYMT,medium_airport,Chapais Airport,49.77190017700195,-74.5280990600586,1270,NA,CA,CA-QC,Chibougamau,yes,CYMT,YMT,CYMT,,,https://en.wikipedia.org/wiki/Chibougamau/Chapais_Airport,,查佩机场
1818,CYMU,small_airport,Umiujaq Airport,56.536098,-76.518303,250,NA,CA,CA-QC,Umiujaq,yes,CYMU,YUD,CYMU,,,https://en.wikipedia.org/wiki/Umiujaq_Airport,YMU,乌缪贾克机场
1820,CYMX,medium_airport,Montreal Mirabel International Airport,45.679501,-74.038696,270,NA,CA,CA-QC,Montréal,yes,CYMX,YMX,CYMX,,,https://en.wikipedia.org/wiki/Montr%C3%A9al-Mirabel_International_Airport,YMQ,蒙特利尔米拉贝尔国际机场
1822,CYNA,medium_airport,Natashquan Airport,50.190114,-61.78898,39,NA,CA,CA-QC,Natashquan,yes,CYNA,YNA,CYNA,,,https://en.wikipedia.org/wiki/Natashquan_Airport,,纳塔什泉机场
1823,CYNC,small_airport,Wemindji Airport,53.010601,-78.8311,66,NA,CA,CA-QC,Wemindji,yes,CYNC,YNC,CYNC,,,https://en.wikipedia.org/wiki/Wemindji_Airport,,威明吉机场
1824,CYND,medium_airport,Ottawa / Gatineau Airport,45.521702,-75.563599,211,NA,CA,CA-QC,Gatineau,yes,CYND,YND,CYND,CYND,http://www.ego-airport.ca/english/propos_ego/,https://en.wikipedia.org/wiki/Ottawa-Gatineau_Airport,YND,渥太华/加蒂诺机场
1825,CYNE,small_airport,Norway House Airport,53.958302,-97.8442,734,NA,CA,CA-MB,Norway House,yes,CYNE,YNE,CYNE,,,https://en.wikipedia.org/wiki/Norway_House_Airport,,挪威之家机场
1828,CYNL,medium_airport,Points North Landing Airport,58.27669906616211,-104.08200073242188,1605,NA,CA,CA-SK,Points North Landing,yes,CYNL,YNL,CYNL,,,https://en.wikipedia.org/wiki/Points_North_Landing_Airport,,北登陆点机场
1833,CYOC,small_airport,Old Crow Airport,67.570602,-139.839005,824,NA,CA,CA-YT,Old Crow,yes,CYOC,YOC,CYOC,,,https://en.wikipedia.org/wiki/Old_Crow_Airport,,旧克罗机场
1835,CYOH,small_airport,Oxford House Airport,54.9333,-95.2789,663,NA,CA,CA-MB,Oxford House,yes,CYOH,YOH,CYOH,,,https://en.wikipedia.org/wiki/Oxford_House_Airport,,牛津豪斯机场
1836,CYOJ,medium_airport,High Level Airport,58.62139892578125,-117.16500091552734,1110,NA,CA,CA-AB,High Level,yes,CYOJ,YOJ,CYOJ,,,https://en.wikipedia.org/wiki/High_Level_Airport,,高级机场
1840,CYOW,large_airport,Ottawa Macdonald-Cartier International Airport,45.322498,-75.669197,374,NA,CA,CA-ON,Ottawa,yes,CYOW,YOW,CYOW,YOW,https://yow.ca/,https://en.wikipedia.org/wiki/Ottawa_Macdonald%E2%80%93Cartier_International_Airport,"Uplands, UUP, CUUP",渥太华麦克唐纳卡地亚国际机场
1842,CYPA,medium_airport,Prince Albert Glass Field,53.214199066199996,-105.672996521,1405,NA,CA,CA-SK,Prince Albert,yes,CYPA,YPA,CYPA,,,https://en.wikipedia.org/wiki/Prince_Albert_(Glass_Field)_Airport,,艾伯特王子城玻璃场
1843,CYPC,small_airport,Paulatuk (Nora Aliqatchialuk Ruben) Airport,69.360838,-124.07547,15,NA,CA,CA-NT,Paulatuk,yes,CYPC,YPC,CYPC,,,https://en.wikipedia.org/wiki/Paulatuk_Airport,,保拉图克 (诺拉·阿里卡奇亚鲁克·鲁本)机场
1845,CYPE,medium_airport,Peace River Airport,56.226898,-117.446999,1873,NA,CA,CA-AB,Peace River,yes,CYPE,YPE,CYPE,,,https://en.wikipedia.org/wiki/Peace_River_Airport,,皮斯河机场
1847,CYPH,small_airport,Inukjuak Airport,58.471901,-78.076897,83,NA,CA,CA-QC,Inukjuak,yes,CYPH,YPH,CYPH,,,https://en.wikipedia.org/wiki/Inukjuak_Airport,,因努克尤克机场
1848,CYPK,medium_airport,Pitt Meadows Regional Airport,49.21488,-122.709294,11,NA,CA,CA-BC,Pitt Meadows,yes,CYPK,,CYPK,,,https://en.wikipedia.org/wiki/Pitt_Meadows_Airport,YPK,皮特梅多斯地区机场
1849,CYPL,medium_airport,Pickle Lake Airport,51.4463996887207,-90.21420288085938,1267,NA,CA,CA-ON,Pickle Lake,yes,CYPL,YPL,CYPL,,,https://en.wikipedia.org/wiki/Pickle_Lake_Airport,,皮克尔湖机场
1850,CYPM,small_airport,Pikangikum Airport,51.819698,-93.973297,1114,NA,CA,CA-ON,Pikangikum,yes,CYPM,YPM,CYPM,,,https://en.wikipedia.org/wiki/Pikangikum_Airport,,皮康吉库姆机场
1851,CYPN,medium_airport,Port-Menier Airport,49.836399,-64.288597,167,NA,CA,CA-QC,Port-Menier,yes,CYPN,YPN,CYPN,,,https://en.wikipedia.org/wiki/Port-Menier_Airport,Anticosti,梅尼尔港机场
1852,CYPO,small_airport,Peawanuck Airport,54.987932,-85.442648,173,NA,CA,CA-ON,Peawanuck,yes,CYPO,YPO,CYPO,,,https://en.wikipedia.org/wiki/Peawanuck_Airport,,皮瓦纳克机场
1854,CYPQ,medium_airport,Peterborough Regional Airport,44.232251,-78.362053,628,NA,CA,CA-ON,Peterborough,yes,CYPQ,YPQ,CYPQ,,https://www.peterborough.ca/business-building-development/airport/,https://en.wikipedia.org/wiki/Peterborough_Airport,,彼得伯勒地区机场
1855,CYPR,medium_airport,Prince Rupert Airport,54.286098480199996,-130.445007324,116,NA,CA,CA-BC,Prince Rupert,yes,CYPR,YPR,CYPR,,http://www.ypr.ca/,https://en.wikipedia.org/wiki/Prince_Rupert_Airport,,鲁珀特王子港机场
1857,CYPT,small_airport,Pelee Island Airport,41.778033,-82.674222,572,NA,CA,CA-ON,Pelee Island,yes,CYPT,,CYPT,,,https://en.wikipedia.org/wiki/Pelee_Island_Airport,YPT,皮利岛机场
1859,CYPW,medium_airport,Powell River Airport,49.83420181274414,-124.5,425,NA,CA,CA-BC,Powell River,yes,CYPW,YPW,CYPW,,,https://en.wikipedia.org/wiki/Powell_River_Airport,,鲍威尔河机场
1860,CYPX,medium_airport,Puvirnituq Airport,60.050598,-77.286903,74,NA,CA,CA-QC,Puvirnituq,yes,CYPX,YPX,CYPX,,,https://en.wikipedia.org/wiki/Puvirnituq_Airport,,普维尔尼图克机场
1861,CYPY,medium_airport,Fort Chipewyan Airport,58.7672004699707,-111.11699676513672,761,NA,CA,CA-AB,Fort Chipewyan,yes,CYPY,YPY,CYPY,,,https://en.wikipedia.org/wiki/Fort_Chipewyan_Airport,,奇佩维恩堡机场
1862,CYPZ,medium_airport,Burns Lake Airport,54.3764,-125.950996,2343,NA,CA,CA-BC,Burns Lake,yes,CYPZ,YPZ,CYPZ,YPZ,,https://en.wikipedia.org/wiki/Burns_Lake_Airport,YPZ,伯恩斯湖机场
1863,CYQA,medium_airport,Muskoka Airport,44.975376,-79.306546,925,NA,CA,CA-ON,Gravenhurst,yes,CYQA,YQA,CYQA,,,https://en.wikipedia.org/wiki/Muskoka_Airport,,马斯科卡机场
1864,CYQB,large_airport,Quebec Jean Lesage International Airport,46.7911,-71.393303,244,NA,CA,CA-QC,Quebec,yes,CYQB,YQB,CYQB,YQB,http://www.aeroportdequebec.com/,https://en.wikipedia.org/wiki/Qu%C3%A9bec/Jean_Lesage_International_Airport,Quebec City,魁北克让·勒萨热国际机场
1865,CYQD,medium_airport,The Pas Airport,53.97140121459961,-101.09100341796875,887,NA,CA,CA-MB,The Pas,yes,CYQD,YQD,CYQD,,,https://en.wikipedia.org/wiki/The_Pas_Airport,,帕斯机场
1867,CYQG,medium_airport,Windsor International Airport,42.2756,-82.955597,622,NA,CA,CA-ON,Windsor,yes,CYQG,YQG,CYQG,,,https://en.wikipedia.org/wiki/Windsor_Airport,,温莎国际机场
1868,CYQH,medium_airport,Watson Lake Airport,60.116839,-128.821993,2255,NA,CA,CA-YT,Watson Lake,yes,CYQH,YQH,CYQH,,,https://en.wikipedia.org/wiki/Watson_Lake_Airport,,沃森湖机场
1870,CYQK,medium_airport,Kenora Airport,49.788299560546875,-94.36309814453125,1332,NA,CA,CA-ON,Kenora,yes,CYQK,YQK,CYQK,,,https://en.wikipedia.org/wiki/Kenora_Airport,,凯诺拉机场
1871,CYQL,medium_airport,Lethbridge County Airport,49.6302986145,-112.800003052,3048,NA,CA,CA-AB,Lethbridge,yes,CYQL,YQL,CYQL,,,https://en.wikipedia.org/wiki/Lethbridge_County_Airport,Kenyon Field,莱斯布里奇县机场
1872,CYQM,medium_airport,Greater Moncton Roméo LeBlanc International Airport,46.113189,-64.67719,232,NA,CA,CA-NB,Moncton,yes,CYQM,YQM,CYQM,,https://cyqm.ca/,https://en.wikipedia.org/wiki/Greater_Moncton_International_Airport,"CYQM, YQM, Moncton",大蒙克顿罗密欧·勒布朗国际机场
1873,CYQN,medium_airport,Nakina Airport,50.18280029296875,-86.69640350341797,1057,NA,CA,CA-ON,Nakina,yes,CYQN,YQN,CYQN,,,https://en.wikipedia.org/wiki/Nakina_Airport,,纳基纳机场
1874,CYQQ,medium_airport,Comox Valley International Airport / CFB Comox,49.7108,-124.887001,84,NA,CA,CA-BC,Comox,yes,CYQQ,YQQ,CYQQ,,https://comoxairport.com,https://en.wikipedia.org/wiki/CFB_Comox,CFB Comox,科莫克斯谷国际机场 / CFB Comox
1875,CYQR,medium_airport,Regina International Airport,50.431938,-104.660906,1894,NA,CA,CA-SK,Regina,yes,CYQR,YQR,CYQR,,,https://en.wikipedia.org/wiki/Regina_International_Airport,"YQR, Roland J. Groome International",里贾纳国际机场
1877,CYQT,medium_airport,Thunder Bay International Airport,48.371899,-89.323898,653,NA,CA,CA-ON,Thunder Bay,yes,CYQT,YQT,CYQT,,,https://en.wikipedia.org/wiki/Thunder_Bay_International_Airport,,桑德贝国际机场
1878,CYQU,medium_airport,Grande Prairie Airport,55.1796989441,-118.885002136,2195,NA,CA,CA-AB,Grande Prairie,yes,CYQU,YQU,CYQU,,http://www.grandeprairieairport.com/,https://en.wikipedia.org/wiki/Grande_Prairie_Airport,,大草原城机场
1881,CYQX,medium_airport,Gander International Airport,48.936258,-54.567719,496,NA,CA,CA-NL,Gander,yes,CYQX,YQX,CYQX,,,https://en.wikipedia.org/wiki/Gander_International_Airport,CFB Gander,甘德国际机场
1882,CYQY,medium_airport,Sydney / J.A. Douglas McCurdy Airport,46.161072,-60.049759,203,NA,CA,CA-NS,Sydney,yes,CYQY,YQY,CYQY,,https://www.sydneyairport.ca/,https://en.wikipedia.org/wiki/Sydney/J.A._Douglas_McCurdy_Airport,,悉尼/J.A.道格拉斯·麦柯迪机场
1883,CYQZ,medium_airport,Quesnel Airport,53.026100158691406,-122.51000213623047,1789,NA,CA,CA-BC,Quesnel,yes,CYQZ,YQZ,CYQZ,,,https://en.wikipedia.org/wiki/Quesnel_Airport,,克内尔机场
1884,CYRA,small_airport,Rae Lakes Airport,64.116096,-117.309998,723,NA,CA,CA-NT,Gamètì,yes,CYRA,YRA,CYRA,,,https://en.wikipedia.org/wiki/Gam%C3%A8t%C3%AC/Rae_Lakes_Airport,,雷伊湖机场
1885,CYRB,medium_airport,Resolute Bay Airport,74.7169036865,-94.9693984985,215,NA,CA,CA-NU,Resolute Bay,yes,CYRB,YRB,CYRB,,,https://en.wikipedia.org/wiki/Resolute_Bay_Airport,,雷索鲁特湾机场
1888,CYRJ,medium_airport,Roberval Airport,48.519665,-72.265735,586,NA,CA,CA-QC,Roberval,yes,CYRJ,YRJ,CYRJ,,,https://en.wikipedia.org/wiki/Roberval_Airport,,罗贝瓦尔机场
1889,CYRL,medium_airport,Red Lake Airport,51.066898345947266,-93.79309844970703,1265,NA,CA,CA-ON,Red Lake,yes,CYRL,YRL,CYRL,,,https://en.wikipedia.org/wiki/Red_Lake_Airport,,红湖机场
1891,CYRO,medium_airport,Ottawa / Rockcliffe Airport,45.460496,-75.644001,188,NA,CA,CA-ON,Ottawa,yes,CYRO,YRO,CYRO,CYRO,http://www.rfc.ca/,https://en.wikipedia.org/wiki/Ottawa/Rockcliffe_Airport,YRO,渥太华/罗克利夫机场
1894,CYRS,small_airport,Red Sucker Lake Airport,54.167198,-93.557198,729,NA,CA,CA-MB,Red Sucker Lake,yes,CYRS,YRS,CYRS,,,https://en.wikipedia.org/wiki/Red_Sucker_Lake_Airport,,红吸盘湖机场
1895,CYRT,medium_airport,Rankin Inlet Airport,62.8114013672,-92.1157989502,94,NA,CA,CA-NU,Rankin Inlet,yes,CYRT,YRT,CYRT,,,https://en.wikipedia.org/wiki/Rankin_Inlet_Airport,,兰金因莱特机场
1897,CYSB,medium_airport,Sudbury Airport,46.625,-80.79889678955078,1141,NA,CA,CA-ON,Sudbury,yes,CYSB,YSB,CYSB,,,https://en.wikipedia.org/wiki/Sudbury_Airport,,萨德伯里机场
1901,CYSF,medium_airport,Stony Rapids Airport,59.250301361083984,-105.84100341796875,805,NA,CA,CA-SK,Stony Rapids,yes,CYSF,YSF,CYSF,,,https://en.wikipedia.org/wiki/Stony_Rapids_Airport,,斯托尼拉皮兹机场
1904,CYSJ,medium_airport,Saint John Airport,45.31610107421875,-65.89029693603516,357,NA,CA,CA-NB,Saint John,yes,CYSJ,YSJ,CYSJ,,,https://en.wikipedia.org/wiki/Saint_John_Airport,,圣约翰机场
1905,CYSK,small_airport,Sanikiluaq Airport,56.536891,-79.250221,104,NA,CA,CA-NU,Sanikiluaq,yes,CYSK,YSK,CYSK,,,https://en.wikipedia.org/wiki/Sanikiluaq_Airport,,萨尼基卢阿克机场
1906,CYSL,medium_airport,Saint-Léonard Airport,47.157097,-67.836242,793,NA,CA,CA-NB,Saint-Léonard,yes,CYSL,YSL,CYSL,,,https://en.wikipedia.org/wiki/St._Leonard_Airport,"St. Leonard, St Leonard",圣莱昂纳德机场
1907,CYSM,medium_airport,Fort Smith Airport,60.020302,-111.961998,671,NA,CA,CA-NT,Fort Smith,yes,CYSM,YSM,CYSM,,,https://en.wikipedia.org/wiki/Fort_Smith_Airport,,史密斯堡机场
1908,CYSN,medium_airport,Niagara District Airport,43.191598,-79.171686,321,NA,CA,CA-ON,Niagara-on-the-Lake,yes,CYSN,YCM,CYSN,,,https://en.wikipedia.org/wiki/St._Catharines/Niagara_District_Airport,"YSN, Saint Catharines",尼亚加拉区机场
1910,CYSQ,small_airport,Atlin Airport,59.57833,-133.668938,2348,NA,CA,CA-BC,Atlin,yes,CYSQ,,CYSQ,,,https://en.wikipedia.org/wiki/Atlin_Airport,"YSQ, EY5",阿特林机场
1912,CYST,small_airport,St. Theresa Point Airport,53.845261,-94.851966,773,NA,CA,CA-MB,St. Theresa Point,yes,CYST,YST,CYST,,,https://en.wikipedia.org/wiki/St._Theresa_Point_Airport,,圣特蕾莎角机场
1915,CYSY,small_airport,Sachs Harbour (David Nasogaluak Jr. Saaryuaq) Airport,71.993896,-125.242996,282,NA,CA,CA-NT,Sachs Harbour,yes,CYSY,YSY,CYSY,,,https://en.wikipedia.org/wiki/Sachs_Harbour_Airport,,萨克斯港 (David Nasogaluak Jr. Saaryuaq) 机场
1918,CYTE,small_airport,Cape Dorset Airport,64.230003,-76.526703,164,NA,CA,CA-NU,Kinngait,yes,CYTE,YTE,CYTE,,,https://en.wikipedia.org/wiki/Cape_Dorset_Airport,,多塞特角机场
1920,CYTH,medium_airport,Thompson Airport,55.80110168457031,-97.86419677734375,729,NA,CA,CA-MB,Thompson,yes,CYTH,YTH,CYTH,,,https://en.wikipedia.org/wiki/Thompson_Airport,,汤普森机场
1921,CYTL,small_airport,Big Trout Lake Airport,53.817799,-89.896896,729,NA,CA,CA-ON,Big Trout Lake,yes,CYTL,YTL,CYTL,,,https://en.wikipedia.org/wiki/Big_Trout_Lake_Airport,,大特劳特湖机场
1923,CYTQ,small_airport,Tasiujaq Airport,58.667801,-69.955803,122,NA,CA,CA-QC,Tasiujaq,yes,CYTQ,YTQ,CYTQ,,,https://en.wikipedia.org/wiki/Tasiujaq_Airport,,塔修雅克机场
1925,CYTS,medium_airport,Timmins/Victor M. Power,48.569698333699996,-81.376701355,967,NA,CA,CA-ON,Timmins,yes,CYTS,YTS,CYTS,,http://portal.timmins.ca/portal/en/timmins/residents/airport,https://en.wikipedia.org/wiki/Timmins_Airport,Timmins Victor M. Power Airport,蒂明斯/维克多·M·鲍尔
1926,CYTZ,medium_airport,Billy Bishop Toronto City Airport,43.627852,-79.39553,252,NA,CA,CA-ON,Toronto,yes,CYTZ,YTZ,CYTZ,,https://www.billybishopairport.com/,https://en.wikipedia.org/wiki/Billy_Bishop_Toronto_City_Airport,"YTO, Toronto Island Airport",比利·毕晓普多伦多城市机场
1928,CYUL,large_airport,Montreal / Pierre Elliott Trudeau International Airport,45.467837,-73.742294,118,NA,CA,CA-QC,Montréal,yes,CYUL,YUL,CYUL,YUL,http://www.admtl.com/passager/Home.aspx,https://en.wikipedia.org/wiki/Montréal–Trudeau_International_Airport,"YMQ, Dorval Airport",蒙特利尔/皮埃尔·埃利奥特·特鲁多国际机场
1929,CYUT,small_airport,Naujaat Airport,66.521024,-86.225166,80,NA,CA,CA-NU,Repulse Bay,yes,CYUT,YUT,CYUT,,,https://en.wikipedia.org/wiki/Repulse_Bay_Airport,Repulse Bay Airport,瑙哈特机场
1930,CYUX,medium_airport,Hall Beach Airport,68.7761,-81.2425,30,NA,CA,CA-NU,Sanirajak,yes,CYUX,YUX,CYUX,,,https://en.wikipedia.org/wiki/Hall_Beach_Airport,,霍尔海滩机场
1931,CYUY,medium_airport,Rouyn Noranda Airport,48.20610046386719,-78.83560180664062,988,NA,CA,CA-QC,Rouyn-Noranda,yes,CYUY,YUY,CYUY,,,https://en.wikipedia.org/wiki/Rouyn-Noranda_Airport,,鲁安诺兰达机场
1932,CYVB,medium_airport,Bonaventure Airport,48.071098,-65.460297,123,NA,CA,CA-QC,Bonaventure,yes,CYVB,YVB,CYVB,,,https://en.wikipedia.org/wiki/Bonaventure_Airport,,博纳旺蒂尔机场
1933,CYVC,medium_airport,La Ronge Airport,55.151401519800004,-105.262001038,1242,NA,CA,CA-SK,La Ronge,yes,CYVC,YVC,CYVC,,,https://en.wikipedia.org/wiki/La_Ronge_(Barber_Field)_Airport,,拉龙日机场
314953,CYVL,small_airport,Tommy Kochon Airport,67.02015,-126.128364,870,NA,CA,CA-NT,Colville Lake,yes,CYVL,YCK,CYVL,,,https://en.wikipedia.org/wiki/Colville_Lake/Tommy_Kochon_Aerodrome,,汤米科琼机场
1937,CYVM,small_airport,Qikiqtarjuaq Airport,67.54656,-64.03141,21,NA,CA,CA-NU,Qikiqtarjuaq,yes,CYVM,YVM,CYVM,,,https://en.wikipedia.org/wiki/Qikiqtarjuaq_Airport,Broughton Island,奇基克塔尔胡阿克机场
1938,CYVO,medium_airport,Val-d'Or Airport,48.0532989502,-77.7827987671,1107,NA,CA,CA-QC,Val-d'Or,yes,CYVO,YVO,CYVO,,http://www.arvo.qc.ca/,https://en.wikipedia.org/wiki/Val-d'Or_Airport,,瓦勒多机场
1939,CYVP,medium_airport,Kuujjuaq Airport,58.096099853515625,-68.4269027709961,129,NA,CA,CA-QC,Kuujjuaq,yes,CYVP,YVP,CYVP,,,https://en.wikipedia.org/wiki/Kuujjuaq_Airport,,库朱阿克机场
1940,CYVQ,medium_airport,Norman Wells Airport,65.28160095214844,-126.7979965209961,238,NA,CA,CA-NT,Norman Wells,yes,CYVQ,YVQ,CYVQ,,,https://en.wikipedia.org/wiki/Norman_Wells_Airport,,诺曼威尔斯机场
1941,CYVR,large_airport,Vancouver International Airport,49.193901,-123.183998,14,NA,CA,CA-BC,Vancouver,yes,CYVR,YVR,CYVR,,http://www.yvr.ca/,https://en.wikipedia.org/wiki/Vancouver_International_Airport,,温哥华国际机场
1943,CYVV,medium_airport,Wiarton Airport,44.7458,-81.107201,729,NA,CA,CA-ON,Wiarton,yes,CYVV,YVV,CYVV,,http://wiartonairport.ca/,https://en.wikipedia.org/wiki/Wiarton_Airport,,怀顿机场
1944,CYVZ,small_airport,Deer Lake Airport,52.655613,-94.061208,1092,NA,CA,CA-ON,Deer Lake,yes,CYVZ,YVZ,CYVZ,,,https://en.wikipedia.org/wiki/Deer_Lake_Airport_(Ontario),,鹿湖机场
954,CYWE,small_airport,Wekweètì Airport,64.190804,-114.077002,1208,NA,CA,CA-NT,Wekweètì,yes,CYWE,YFJ,CYWE,CFJ7,,https://en.wikipedia.org/wiki/Wekwe%C3%A8t%C3%AC_Airport,"Wekweti, Snare Lake",韦奎蒂机场
1946,CYWG,large_airport,Winnipeg / James Armstrong Richardson International Airport,49.909999847399995,-97.2398986816,783,NA,CA,CA-MB,Winnipeg,yes,CYWG,YWG,CYWG,YWG,http://www.waa.ca/,https://en.wikipedia.org/wiki/Winnipeg_James_Armstrong_Richardson_International_Airport,CFB Winnipeg,温尼伯/詹姆斯阿姆斯特朗理查森国际机场
1947,CYWH,seaplane_base,Victoria Harbour Seaplane Base,48.423782,-123.37198,,NA,CA,CA-BC,Victoria,yes,CYWH,YWH,CYWH,,,https://en.wikipedia.org/wiki/Victoria_Inner_Harbour_Airport,,维多利亚港水上飞机基地
1948,CYWJ,small_airport,Déline Airport,65.211098,-123.435997,703,NA,CA,CA-NT,Déline,yes,CYWJ,YWJ,CYWJ,,,https://en.wikipedia.org/wiki/Deline_Airport,"Délı̨nę, Fort Franklin",德利纳机场
1949,CYWK,medium_airport,Wabush Airport,52.92190170288086,-66.8644027709961,1808,NA,CA,CA-NL,Wabush,yes,CYWK,YWK,CYWK,,,https://en.wikipedia.org/wiki/Wabush_Airport,,沃布什机场
1950,CYWL,medium_airport,Williams Lake Airport,52.1831016541,-122.054000854,3085,NA,CA,CA-BC,Williams Lake,yes,CYWL,YWL,CYWL,,,https://en.wikipedia.org/wiki/Williams_Lake_Airport,,威廉斯湖机场
1952,CYWP,small_airport,Webequie Airport,52.959393,-87.374868,685,NA,CA,CA-ON,Webequie,yes,CYWP,YWP,CYWP,,,https://en.wikipedia.org/wiki/Webequie_Airport,,韦比基机场
1955,CYXC,medium_airport,Cranbrook/Canadian Rockies International Airport,49.610802,-115.781998,3082,NA,CA,CA-BC,Cranbrook,yes,CYXC,YXC,CYXC,,https://flycanadianrockies.com/,https://en.wikipedia.org/wiki/Cranbrook/Canadian_Rockies_International_Airport,,克兰布鲁克/加拿大落基山脉国际机场
1957,CYXE,large_airport,Saskatoon John G. Diefenbaker International Airport,52.170723,-106.700793,1653,NA,CA,CA-SK,Saskatoon,yes,CYXE,YXE,CYXE,,,https://en.wikipedia.org/wiki/Saskatoon/John_G._Diefenbaker_International_Airport,,萨斯卡通约翰·G·迪芬贝克国际机场
1958,CYXH,medium_airport,Medicine Hat Regional Airport,50.018902,-110.721001,2352,NA,CA,CA-AB,Medicine Hat,yes,CYXH,YXH,CYXH,,,https://en.wikipedia.org/wiki/Medicine_Hat_Airport,,梅迪辛哈特地区机场
1959,CYXJ,medium_airport,Fort St John / North Peace Regional Airport,56.238098,-120.739998,2280,NA,CA,CA-BC,Fort Saint John,yes,CYXJ,YXJ,CYXJ,,,https://en.wikipedia.org/wiki/Fort_St._John_Airport,BZ3,圣约翰堡/北和平地区机场
1960,CYXK,medium_airport,Rimouski Airport,48.477644,-68.496323,82,NA,CA,CA-QC,Rimouski,yes,CYXK,YXK,CYXK,,,https://en.wikipedia.org/wiki/Rimouski_Airport,,里穆斯基机场
1961,CYXL,medium_airport,Sioux Lookout Airport,50.11389923095703,-91.9052963256836,1258,NA,CA,CA-ON,Sioux Lookout,yes,CYXL,YXL,CYXL,,,https://en.wikipedia.org/wiki/Sioux_Lookout_Airport,,苏卢考特机场
1962,CYXN,small_airport,Whale Cove Airport,62.240002,-92.598099,40,NA,CA,CA-NU,Whale Cove,yes,CYXN,YXN,CYXN,,,https://en.wikipedia.org/wiki/Whale_Cove_Airport,,鲸鱼湾机场
1963,CYXP,small_airport,Pangnirtung Airport,66.144878,-65.713606,75,NA,CA,CA-NU,Pangnirtung,yes,CYXP,YXP,CYXP,,,https://en.wikipedia.org/wiki/Pangnirtung_Airport,,庞纳东机场
1966,CYXS,medium_airport,Prince George (International) Airport,53.884311,-122.666554,2267,NA,CA,CA-BC,Prince George,yes,CYXS,YXS,CYXS,,https://www.pgairport.ca/,https://en.wikipedia.org/wiki/Prince_George_Airport,Prince George International,乔治王子城（国际）机场
1967,CYXT,medium_airport,Northwest Regional Airport Terrace-Kitimat,54.468498,-128.576009,713,NA,CA,CA-BC,Terrace,yes,CYXT,YXT,CYXT,,,https://en.wikipedia.org/wiki/Terrace_Airport,,西北地区机场特勒斯-基蒂马特
1968,CYXU,medium_airport,London International Airport,43.032845,-81.149003,912,NA,CA,CA-ON,London,yes,CYXU,YXU,CYXU,,http://www.londonairport.on.ca/,https://en.wikipedia.org/wiki/London_International_Airport,,伦敦国际机场
1969,CYXX,medium_airport,Abbotsford International Airport,49.025299,-122.361,195,NA,CA,CA-BC,Abbotsford,yes,CYXX,YXX,CYXX,,http://www.abbotsfordairport.ca/,https://en.wikipedia.org/wiki/Abbotsford_International_Airport,,阿伯茨福德国际机场
1970,CYXY,medium_airport,Whitehorse / Erik Nielsen International Airport,60.708533,-135.065705,2317,NA,CA,CA-YT,Whitehorse,yes,CYXY,YXY,CYXY,,https://yukonairports.ca/about-yxy,https://en.wikipedia.org/wiki/Whitehorse_International_Airport,,白马/埃里克尼尔森国际机场
1972,CYYB,medium_airport,North Bay Jack Garland Airport,46.363602,-79.422798,1215,NA,CA,CA-ON,North Bay,yes,CYYB,YYB,CYYB,,https://yyb.ca/,https://en.wikipedia.org/wiki/North_Bay/Jack_Garland_Airport,"Jack Garland Airport, CFB North Bay",北湾杰克加兰机场
1973,CYYC,large_airport,Calgary International Airport,51.118822,-114.009933,3557,NA,CA,CA-AB,Calgary,yes,CYYC,YYC,CYYC,,http://www.calgaryairport.com/,https://en.wikipedia.org/wiki/Calgary_International_Airport,McCall Field,卡尔加里国际机场
1974,CYYD,medium_airport,Smithers Airport,54.82469940185547,-127.18299865722656,1712,NA,CA,CA-BC,Smithers,yes,CYYD,YYD,CYYD,,,https://en.wikipedia.org/wiki/Smithers_Airport,,史密瑟斯机场
1975,CYYE,medium_airport,Fort Nelson Airport,58.8363990784,-122.597000122,1253,NA,CA,CA-BC,Fort Nelson,yes,CYYE,YYE,CYYE,,,https://en.wikipedia.org/wiki/Fort_Nelson_Airport,,纳尔逊堡机场
1976,CYYF,medium_airport,Penticton Airport,49.46310043334961,-119.60199737548828,1129,NA,CA,CA-BC,Penticton,yes,CYYF,YYF,CYYF,,,https://en.wikipedia.org/wiki/Penticton_Regional_Airport,,彭蒂克顿机场
1977,CYYG,medium_airport,Charlottetown Airport,46.288911,-63.125174,160,NA,CA,CA-PE,Charlottetown,yes,CYYG,YYG,CYYG,,,https://en.wikipedia.org/wiki/Charlottetown_Airport,PEI,夏洛特敦机场
1978,CYYH,small_airport,Taloyoak Airport,69.5467,-93.576698,92,NA,CA,CA-NU,Taloyoak,yes,CYYH,YYH,CYYH,,,https://en.wikipedia.org/wiki/Taloyoak_Airport,Spence Bay,塔洛奥克机场
1979,CYYJ,large_airport,Victoria International Airport,48.647201,-123.427792,63,NA,CA,CA-BC,Victoria,yes,CYYJ,YYJ,CYYJ,,http://www.victoriaairport.com/,https://en.wikipedia.org/wiki/Victoria_International_Airport,,维多利亚国际机场
1980,CYYL,medium_airport,Lynn Lake Airport,56.86389923095703,-101.07599639892578,1170,NA,CA,CA-MB,Lynn Lake,yes,CYYL,YYL,CYYL,,,https://en.wikipedia.org/wiki/Lynn_Lake_Airport,,林恩湖机场
1984,CYYQ,medium_airport,Churchill Airport,58.739200592041016,-94.06500244140625,94,NA,CA,CA-MB,Churchill,yes,CYYQ,YYQ,CYYQ,,,https://en.wikipedia.org/wiki/Churchill_Airport,,丘吉尔机场
1985,CYYR,medium_airport,Goose Bay Airport,53.3191986084,-60.4258003235,160,NA,CA,CA-NL,Goose Bay,yes,CYYR,YYR,CYYR,,,https://en.wikipedia.org/wiki/CFB_Goose_Bay,CFB Goose Bay,古斯湾机场
1986,CYYT,large_airport,St. John's International Airport,47.618599,-52.7519,461,NA,CA,CA-NL,St. John's,yes,CYYT,YYT,CYYT,,https://www.stjohnsairport.com/,https://en.wikipedia.org/wiki/St._John's_International_Airport,,圣约翰国际机场
1989,CYYY,medium_airport,Mont Joli Airport,48.60860061645508,-68.20809936523438,172,NA,CA,CA-QC,Mont-Joli,yes,CYYY,YYY,CYYY,,,https://en.wikipedia.org/wiki/Mont-Joli_Airport,,若利山机场
1990,CYYZ,large_airport,Toronto Pearson International Airport,43.675935,-79.629421,569,NA,CA,CA-ON,Toronto,yes,CYYZ,YYZ,CYYZ,YYZ,http://www.torontopearson.com/,https://en.wikipedia.org/wiki/Toronto_Pearson_International_Airport,"YTO, Toronto International Airport, Malton",多伦多皮尔逊国际机场
1993,CYZF,medium_airport,Yellowknife International Airport,62.462799,-114.440002,675,NA,CA,CA-NT,Yellowknife,yes,CYZF,YZF,CYZF,,https://www.inf.gov.nt.ca/en/services/airports/yellowknife-airport,https://en.wikipedia.org/wiki/Yellowknife_Airport,,黄刀国际机场
1994,CYZG,small_airport,Salluit Airport,62.179401,-75.667198,743,NA,CA,CA-QC,Salluit,yes,CYZG,YZG,CYZG,,,https://en.wikipedia.org/wiki/Salluit_Airport,,萨卢特机场
1996,CYZP,medium_airport,Sandspit Airport,53.25429916379999,-131.813995361,21,NA,CA,CA-BC,Sandspit,yes,CYZP,YZP,CYZP,,,https://en.wikipedia.org/wiki/Sandspit_Airport,"Queen Charlotte Islands, Haida Gwaii",桑兹皮特机场
1998,CYZS,medium_airport,Coral Harbour Airport,64.1932983398,-83.3593978882,210,NA,CA,CA-NU,Coral Harbour,yes,CYZS,YZS,CYZS,,,https://en.wikipedia.org/wiki/Coral_Harbour_Airport,,珊瑚港机场
1999,CYZT,medium_airport,Port Hardy Airport,50.680599212646484,-127.36699676513672,71,NA,CA,CA-BC,Port Hardy,yes,CYZT,YZT,CYZT,,,https://en.wikipedia.org/wiki/Port_Hardy_Airport,,哈迪港机场
2000,CYZU,medium_airport,Whitecourt Airport,54.143902,-115.787003,2567,NA,CA,CA-AB,Whitecourt,yes,CYZU,YZU,CYZU,,,https://en.wikipedia.org/wiki/Whitecourt_Airport,,怀特考特机场
2001,CYZV,medium_airport,Sept-Îles Airport,50.22330093383789,-66.2656021118164,180,NA,CA,CA-QC,Sept-Îles,yes,CYZV,YZV,CYZV,,,https://en.wikipedia.org/wiki/Sept-%C3%8Eles_Airport,,七岛机场
2004,CYZY,medium_airport,Mackenzie Airport,55.297786,-123.133907,2264,NA,CA,CA-BC,Mackenzie,yes,CYZY,,CYZY,,,https://en.wikipedia.org/wiki/Mackenzie_Airport,YZY,麦肯齐机场
2009,CZBD,small_airport,Ilford Airport,56.051622,-95.61882,642,NA,CA,CA-MB,Ilford,yes,CZBD,ILF,CZBD,,,https://en.wikipedia.org/wiki/Ilford_Airport,ZBD,伊尔福德机场
2010,CZBF,medium_airport,Bathurst Airport,47.6297,-65.738899,193,NA,CA,CA-NB,South Tetagouche,yes,CZBF,ZBF,CZBF,,,https://en.wikipedia.org/wiki/Bathurst_Airport_(New_Brunswick),ZBF,巴瑟斯特机场
2013,CZEM,small_airport,Eastmain River Airport,52.226398,-78.522499,24,NA,CA,CA-QC,Eastmain River,yes,CZEM,ZEM,CZEM,,,https://en.wikipedia.org/wiki/Eastmain_River_Airport,,伊斯特梅因河机场
2015,CZFD,small_airport,Fond-du-Lac Airport,59.3344,-107.181999,814,NA,CA,CA-SK,Fond-du-Lac,yes,CZFD,ZFD,CZFD,,,https://en.wikipedia.org/wiki/Fond-du-Lac_Airport,,丰迪拉克机场
2016,CZFG,small_airport,Pukatawagan Airport,55.749199,-101.265999,958,NA,CA,CA-MB,Pukatawagan,yes,CZFG,XPK,CZFG,ZFG,,https://en.wikipedia.org/wiki/Pukatawagan_Airport,,普卡塔瓦甘机场
2017,CZFM,small_airport,Fort Mcpherson Airport,67.406993,-134.860182,116,NA,CA,CA-NT,Fort Mcpherson,yes,CZFM,ZFM,CZFM,,,https://en.wikipedia.org/wiki/Fort_McPherson_Airport,,麦克弗森堡机场
2018,CZFN,small_airport,Tulita Airport,64.909496,-125.570297,332,NA,CA,CA-NT,Tulita,yes,CZFN,ZFN,CZFN,,,https://en.wikipedia.org/wiki/Tulita_Airport,Fort Norman,图利塔机场
2020,CZGI,small_airport,Gods River Airport,54.839699,-94.078598,627,NA,CA,CA-MB,Gods River,yes,CZGI,ZGI,CZGI,,,https://en.wikipedia.org/wiki/Gods_River_Airport,,神河机场
2025,CZKE,small_airport,Kashechewan Airport,52.282501,-81.677803,35,NA,CA,CA-ON,Kashechewan,yes,CZKE,ZKE,CZKE,,,https://en.wikipedia.org/wiki/Kashechewan_Airport,,卡什切万机场
2027,CZMD,small_airport,Muskrat Dam Airport,53.441399,-91.762802,911,NA,CA,CA-ON,Muskrat Dam,yes,CZMD,MSA,CZMD,,,https://en.wikipedia.org/wiki/Muskrat_Dam_Airport,ZMD,麝香鼠大坝机场
2030,CZMT,medium_airport,Masset Airport,54.0275,-132.125,25,NA,CA,CA-BC,Masset,yes,CZMT,ZMT,CZMT,,,https://en.wikipedia.org/wiki/Masset_Airport,,马塞特机场
2033,CZPB,small_airport,Sachigo Lake Airport,53.890885,-92.195935,876,NA,CA,CA-ON,Sachigo Lake,yes,CZPB,ZPB,CZPB,,,https://en.wikipedia.org/wiki/Sachigo_Lake_Airport,,幸乡湖机场
2036,CZRJ,small_airport,Round Lake (Weagamow Lake) Airport,52.9436,-91.312798,974,NA,CA,CA-ON,Round Lake,yes,CZRJ,ZRJ,CZRJ,,,https://en.wikipedia.org/wiki/Round_Lake_(Weagamow_Lake)_Airport,,朗德湖（威加莫湖）机场
2037,CZSJ,medium_airport,Sandy Lake Airport,53.06420135498047,-93.34439849853516,951,NA,CA,CA-ON,Sandy Lake,yes,CZSJ,ZSJ,CZSJ,,,https://en.wikipedia.org/wiki/Sandy_Lake_Airport,,桑迪湖机场
2038,CZSN,small_airport,South Indian Lake Airport,56.792801,-98.907204,951,NA,CA,CA-MB,South Indian Lake,yes,CZSN,XSI,CZSN,ZSN,,https://en.wikipedia.org/wiki/South_Indian_Lake_Airport,,南印度湖机场
2040,CZTA,small_airport,Bloodvein River Airport,51.784568,-96.692305,721,NA,CA,CA-MB,Bloodvein River,yes,CZTA,YDV,CZTA,ZTA,,https://en.wikipedia.org/wiki/Bloodvein_River_Airport,ZTA,血脉河机场
2041,CZTM,small_airport,Shamattawa Airport,55.86356,-92.081137,289,NA,CA,CA-MB,Shamattawa,yes,CZTM,ZTM,CZTM,,,https://en.wikipedia.org/wiki/Shamattawa_Airport,,沙马塔瓦机场
2043,CZUM,small_airport,Churchill Falls Airport,53.5619010925293,-64.10639953613281,1442,NA,CA,CA-NL,Churchill Falls,yes,CZUM,ZUM,CZUM,,,https://en.wikipedia.org/wiki/Churchill_Falls_Airport,ZUM,丘吉尔瀑布机场
2045,CZWH,small_airport,Lac Brochet Airport,58.614279,-101.468954,1211,NA,CA,CA-MB,Lac Brochet,yes,CZWH,XLB,CZWH,ZWH,,https://en.wikipedia.org/wiki/Lac_Brochet_Airport,,拉布罗谢机场
2046,CZWL,small_airport,Wollaston Lake Airport,58.106899,-103.171997,1360,NA,CA,CA-SK,Wollaston Lake,yes,CZWL,ZWL,CZWL,,,https://en.wikipedia.org/wiki/Wollaston_Lake_Airport,,沃拉斯顿湖机场
2049,DAAE,large_airport,Soummam–Abane Ramdane Airport,36.712547,5.069909,20,AF,DZ,DZ-06,Béjaïa,yes,DAAE,BJA,DAAE,BJ1,,https://en.wikipedia.org/wiki/Abane_Ramdane_Airport,"Béjaïa, Soummam",苏曼-阿巴内拉姆丹机场
2050,DAAG,large_airport,Houari Boumediene Airport,36.693886,3.214531,82,AF,DZ,DZ-16,Algiers,yes,DAAG,ALG,DAAG,,,https://en.wikipedia.org/wiki/Houari_Boumediene_Airport,"Algiers, Maison Blanche",胡阿里·布迈丁机场
2051,DAAJ,large_airport,Tiska Djanet Airport,24.285448,9.463652,3176,AF,DZ,DZ-56,Djanet,yes,DAAJ,DJG,DAAJ,,,https://en.wikipedia.org/wiki/Djanet_Inedbirene_Airport,"Cheikh Amoud Ben el Mokhtar, Djanet Inedbirene Airport",蒂斯卡贾内特机场
2054,DAAP,medium_airport,Illizi Takhamalt Airport,26.723499,8.62265,1778,AF,DZ,DZ-33,Illizi,yes,DAAP,VVZ,DAAP,,,https://en.wikipedia.org/wiki/Illizi_Airport,,伊利兹塔卡马尔特机场
32193,DAAS,medium_airport,Ain Arnat Airport,36.178488,5.329909,3360,AF,DZ,DZ-19,Sétif,yes,DAAS,QSF,DAAS,,https://www.egsa-constantine.dz/setif.html,https://en.wikipedia.org/wiki/Ain_Arnat_Airport,"Sétif International Airport, 8 Mai 45 Airport",艾因阿纳特机场
2056,DAAT,large_airport,Aguenar – Hadj Bey Akhamok Airport,22.810992,5.450832,4518,AF,DZ,DZ-11,Tamanrasset,yes,DAAT,TMR,DAAT,,,https://en.wikipedia.org/wiki/Tamanrasset_Airport,,阿古纳尔 – 哈吉贝阿卡莫克机场
2057,DAAV,large_airport,Jijel Ferhat Abbas Airport,36.794125,5.873652,36,AF,DZ,DZ-18,Tahir,yes,DAAV,GJL,DAAV,,,https://en.wikipedia.org/wiki/Jijel_Ferhat_Abbas_Airport,,吉杰尔·费尔哈特·阿巴斯机场
2060,DABB,large_airport,Annaba Rabah Bitat Airport,36.826781,7.81334,16,AF,DZ,DZ-23,Annaba,yes,DABB,AAE,DABB,,,https://en.wikipedia.org/wiki/Rabah_Bitat_Airport,"Les Salines Airport, El Mellah Airport, Annabah",安纳巴拉巴比塔机场
2061,DABC,large_airport,Mohamed Boudiaf International Airport,36.276001,6.62039,2265,AF,DZ,DZ-25,Constantine,yes,DABC,CZL,DABC,,https://www.egsa-constantine.dz/constantine.html,https://en.wikipedia.org/wiki/Mohamed_Boudiaf_International_Airport,,穆罕默德·布迪亚夫国际机场
2062,DABS,medium_airport,Cheikh Larbi Tébessi Airport,35.4315986633,8.12071990967,2661,AF,DZ,DZ-12,Tébessi,yes,DABS,TEE,DABS,,,https://en.wikipedia.org/wiki/T%C3%A9bessa_Airport,,谢赫拉尔比泰贝西机场
2063,DABT,large_airport,Batna Mostefa Ben Boulaid Airport,35.752102,6.30859,2697,AF,DZ,DZ-05,Batna,yes,DABT,BLJ,DABT,,,https://en.wikipedia.org/wiki/Batna_Airport,,巴特纳莫斯特法本布莱德机场
2067,DAOF,medium_airport,Tindouf Airport,27.7003993988,-8.167099952700001,1453,AF,DZ,DZ-37,Tindouf,yes,DAOF,TIN,DAOF,,,https://en.wikipedia.org/wiki/Tindouf_Airport,,廷杜夫机场
2068,DAOI,large_airport,Chlef Aboubakr Belkaid International Airport,36.216614,1.341114,463,AF,DZ,DZ-02,Chlef,yes,DAOI,CFK,DAOI,,,https://en.wikipedia.org/wiki/Chlef_International_Airport,Ech Cheliff Airport,谢莱夫·阿布巴克尔·贝尔凯德国际机场
2070,DAON,large_airport,Zenata – Messali El Hadj Airport,35.012732,-1.457117,814,AF,DZ,DZ-13,Zenata,yes,DAON,TLM,DAON,,,https://en.wikipedia.org/wiki/Zenata_%E2%80%93_Messali_El_Hadj_Airport,Tlemcen,泽纳塔 – 梅萨利哈吉机场
2071,DAOO,large_airport,Oran Es-Sénia (Ahmed Ben Bella) International Airport,35.620648,-0.622486,295,AF,DZ,DZ-31,Es-Sénia,yes,DAOO,ORN,DAOO,,,https://en.wikipedia.org/wiki/Oran_Es_Senia_Airport,Es Senia,奥兰·塞尼亚（艾哈迈德·本·贝拉）国际机场
2072,DAOR,medium_airport,Béchar Boudghene Ben Ali Lotfi Airport,31.645700454711914,-2.269860029220581,2661,AF,DZ,DZ-08,Béchar,yes,DAOR,CBH,DAOR,,,https://en.wikipedia.org/wiki/B%C3%A9char_Ouakda_Airport,Béchar Ouakda Airport,贝沙尔·布德盖内·本·阿里·洛特菲机场
30777,DATM,medium_airport,Bordj Badji Mokhtar Airport,21.3778,0.92698,1303,AF,DZ,DZ-52,Bordj Badji Mokhtar,yes,DATM,BMW,DATM,,,https://en.wikipedia.org/wiki/Bordj_Mokhtar_Airport,,博吉巴吉莫赫塔尔机场
2075,DAUA,medium_airport,Touat-Cheikh Sidi Mohamed Belkebir Airport,27.837601,-0.186414,919,AF,DZ,DZ-01,Adrar,yes,DAUA,AZR,DAUA,,,https://en.wikipedia.org/wiki/Touat_Cheikh_Sidi_Mohamed_Belkebir_Airport,لكبير  مطار أدرار – توات الشيخ سيدي محمد بن,图阿特-谢赫·西迪·穆罕默德·贝尔克比尔机场
2076,DAUB,large_airport,Biskra - Mohamed Khider Airport,34.79318,5.738899,289,AF,DZ,DZ-07,Biskra,yes,DAUB,BSK,DAUB,,,https://en.wikipedia.org/wiki/Biskra_Airport,,比斯克拉 - 穆罕默德海德机场
2077,DAUE,medium_airport,El Golea Airport,30.580732,2.861595,1306,AF,DZ,DZ-50,El Menia,yes,DAUE,ELG,DAUE,,,https://en.wikipedia.org/wiki/El_Golea_Airport,,埃尔戈莱亚机场
2078,DAUG,medium_airport,Noumérat - Moufdi Zakaria Airport,32.384102,3.79411,1512,AF,DZ,DZ-47,El Atteuf,yes,DAUG,GHA,DAUG,,,https://en.wikipedia.org/wiki/Noumerate_Airport,Ghardaïa,努梅拉特 - 穆夫迪扎卡里亚机场
2079,DAUH,medium_airport,Hassi Messaoud-Oued Irara Krim Belkacem Airport,31.673,6.14044,463,AF,DZ,DZ-30,Hassi Messaoud,yes,DAUH,HME,DAUH,,,https://en.wikipedia.org/wiki/Oued_Irara_Airport,,哈西迈萨乌德-伊拉拉克里姆贝尔卡塞姆机场
2080,DAUI,medium_airport,In Salah Airport,27.250999,2.51202,896,AF,DZ,DZ-57,In Salah,yes,DAUI,INZ,DAUI,,,https://en.wikipedia.org/wiki/In_Salah_Airport,,在 萨拉赫机场
2081,DAUK,medium_airport,Touggourt Sidi Madhi Airport,33.067799,6.08867,279,AF,DZ,DZ-55,Touggourt,yes,DAUK,TGR,DAUK,,,https://en.wikipedia.org/wiki/Touggourt_Sidi_Madhi_Airport,,图古特西迪马迪机场
2083,DAUO,medium_airport,Guemar Airport - مطار قمار بالوادي,33.511398,6.77679,203,AF,DZ,DZ-39,Guemar,yes,DAUO,ELU,DAUO,,,https://en.wikipedia.org/wiki/Guemar_Airport,,格马尔机场 - 巴巴多斯
2084,DAUT,medium_airport,Timimoun Airport,29.237101,0.276033,1027,AF,DZ,DZ-54,Timimoun,yes,DAUT,TMX,DAUT,,,https://en.wikipedia.org/wiki/Timimoun_Airport,,蒂米蒙机场
2085,DAUU,medium_airport,Ain Beida Airport,31.9172,5.41278,492,AF,DZ,DZ-30,Ouargla,yes,DAUU,OGX,DAUU,,,https://en.wikipedia.org/wiki/Ain_Beida_Airport,"Ain el Beida, Sedrata Airfield",艾因贝达机场
2086,DAUZ,medium_airport,Zarzaitine - In Aménas Airport,28.0515,9.64291,1847,AF,DZ,DZ-33,In Aménas,yes,DAUZ,IAM,DAUZ,,,https://en.wikipedia.org/wiki/In_Amenas_Airport,,扎尔扎伊廷 - 在阿梅纳斯机场
2087,DBBB,large_airport,Cotonou Cadjehoun International Airport,6.35723,2.38435,19,AF,BJ,BJ-AQ,Cotonou,yes,DBBB,COO,DBBB,,,https://en.wikipedia.org/wiki/Cadjehoun_Airport,,科托努卡杰洪国际机场
315622,DEX,small_airport,Nop Goliat Dekai Airport,-4.8557,139.482006,198,AS,ID,ID-PP,Dekai,yes,WAVD,DEX,WAVD,,,https://en.wikipedia.org/wiki/Nop_Goliat_Dekai_Airport,Nop Goliath,诺普戈利亚特德凯机场
2088,DFFD,large_airport,Ouagadougou Thomas Sankara International Airport,12.3532,-1.51242,1037,AF,BF,BF-KAD,Ouagadougou,yes,DFFD,OUA,DFFD,,,https://en.wikipedia.org/wiki/Ouagadougou_Airport,,瓦加杜古托马斯桑卡拉国际机场
2089,DFOO,large_airport,Bobo Dioulasso Airport,11.1601,-4.33097,1511,AF,BF,BF-HOU,Bobo Dioulasso,yes,DFOO,BOY,DFOO,,,https://en.wikipedia.org/wiki/Bobo_Dioulasso_Airport,,博博迪乌拉索机场
2090,DGAA,large_airport,Kotoka International Airport,5.605189800262451,-0.16678600013256073,205,AF,GH,GH-AA,Accra,yes,DGAA,ACC,DGAA,,,https://en.wikipedia.org/wiki/Kotoka_International_Airport,,科托卡国际机场
354173,DGAH,medium_airport,Ho Airport,6.579691,0.532547,356,AF,GH,GH-TV,Ho,yes,DGAH,,DGAH,HZ09,https://www.gacl.com.gh/,https://en.wikipedia.org/wiki/Ho_Airport,,何机场
